Country,Province,Name,Owner,Shareholders,ShareholderNationality,PlantRiver,Latitude,Longitude,Status,Capacity,Year,Capital,Link,
Argentina / Uruguai,Entre Ríos - Salto,Salto Grande,Comisión Técnica Mixta de Salto Grande,Argentina (50%) / Uruguai (50%),Argentina / Uruguai,Uruguai,-31.2743171,-57.9394252,Operacional,1890,1979,Estatal,https://www.argentina.gob.ar/economia/energia/energia-electrica/hidroelectrica/centrales-hidroelectricas,
Argentina / Paraguai,Corrientes - Misiones,Yacyretá,Entidad Binacional Yacyretá,Argentina (50%) / Paraguai (50%),Argentina / Paraguai,Paraná,-27.4827,-56.7397,Operacional,1600,1994,Estatal,https://www.argentina.gob.ar/economia/energia/energia-electrica/hidroelectrica/centrales-hidroelectricas,
Argentina,Neuquén - Río Negro,Piedra del Águila (CPSA),Hidroeléctrica Piedra del Águila S.A.,Hidroeléctrica Piedra del Águila S.A.,Argentina,Limay,-40.1899735,-69.9922885,Operacional,1440,1993,Misto,https://www.argentina.gob.ar/economia/energia/energia-electrica/hidroelectrica/centrales-hidroelectricas,
Argentina,Neuquén - Río Negro,Chocón,Enel Generación El Chocón S.A.,Hidroinvest S.A. (59%),Itália,Limay,-39.2577,-68.7483,Operacional,1200,1973,Misto,https://www.argentina.gob.ar/economia/energia/energia-electrica/hidroelectrica/centrales-hidroelectricas,
Argentina,Neuquén - Río Negro,Alicurá,AES Alicurá S.A.,AES Alicurá S.A.,Estados Unidos,Limay,-40.5796295,-70.7951326,Operacional,1000,1985,Misto,https://www.argentina.gob.ar/economia/energia/energia-electrica/hidroelectrica/centrales-hidroelectricas,
Argentina,Córdoba,Río Grande,Empresa Provincial de Energía de Córdoba EPEC,Empresa Provincial de Energía de Córdoba EPEC,Argentina,Grande,-32.2218,-64.6365,Operacional,750,1986,Estatal,https://www.argentina.gob.ar/economia/energia/energia-electrica/hidroelectrica/centrales-hidroelectricas,
Argentina,Chubut,Futaleufú,Hidroeléctrica Futaleufú S.A.,Hidroeléctrica Futaleufú S.A.,Argentina,Futaleufú,-43.1288,-71.63,Operacional,472,1978,Misto,https://www.argentina.gob.ar/economia/energia/energia-electrica/hidroelectrica/centrales-hidroelectricas,
Argentina,Neuquén,Planicie Banderita,Hidroeléctrica Cerros Colorados S.A.,Hidroeléctrica Cerros Colorados S.A.,Argentina,Neuquén,-38.5595718,-68.4744871,Operacional,472,1978,Misto,https://www.argentina.gob.ar/economia/energia/energia-electrica/hidroelectrica/centrales-hidroelectricas,
Argentina,Neuquén - Río Negro,Pichi Picún Leufú,Pampa Energía S.A.,Pampa Energía S.A.,Argentina,Limay,-40.012,-69.9918,Operacional,285,2000,Misto,https://www.argentina.gob.ar/economia/energia/energia-electrica/hidroelectrica/centrales-hidroelectricas,
Argentina,Mendoza,Los Reyunos,Pampa Energía S.A.,Pampa Energía S.A.,Argentina,Diamante,-34.6028,-68.6383,Operacional,224,1983,Misto,https://www.argentina.gob.ar/economia/energia/energia-electrica/hidroelectrica/centrales-hidroelectricas,
Argentina,Mendoza,Agua del Toro,Pampa Energía S.A.,Pampa Energía S.A.,Argentina,Diamante,-34.58416667,-69.03638889,Operacional,150,1976,Misto,https://www.argentina.gob.ar/economia/energia/energia-electrica/hidroelectrica/centrales-hidroelectricas,
Argentina,Mendoza,Nihuil II (Aisol),Pampa Energía S.A.,Pampa Energía S.A.,Argentina,Atuel,-34.9126984,-68.623751,Operacional,133.12,1968,Misto,https://www.argentina.gob.ar/economia/energia/energia-electrica/hidroelectrica/centrales-hidroelectricas,
Argentina,San Juan,Los Caracoles,Energía Provincial Sociedad del Estado EPSE,Energía Provincial Sociedad del Estado EPSE,Argentina,San Juan,-31.5192,-68.9814,Operacional,121.4,2008,Estatal,https://www.argentina.gob.ar/economia/energia/energia-electrica/hidroelectrica/centrales-hidroelectricas,
Argentina,Mendoza,Cacheuta,Consorcio Potrerillos,Consorcio Potrerillos,Argentina,Mendoza,-33.0291,-69.1109,Operacional,120,2003,Privado,https://www.argentina.gob.ar/economia/energia/energia-electrica/hidroelectrica/centrales-hidroelectricas,
Argentina,Misiones,Urugua-í,Electricidad de Misiones S.A.,Electricidad de Misiones S.A.,Argentina,Arroyo Urugua-í,-25.8766,-54.5687,Operacional,120,1991,Estatal,https://www.argentina.gob.ar/economia/energia/energia-electrica/hidroelectrica/centrales-hidroelectricas,
Argentina,Neuquén - Río Negro,Arroyito,Enel Generación El Chocón S.A.,Enel Generación El Chocón S.A.,Itália,Limay,-39.1009,-68.5982,Operacional,120,1983,Misto,https://www.argentina.gob.ar/economia/energia/energia-electrica/hidroelectrica/centrales-hidroelectricas,
Argentina,Salta,Gral. Manuel Belgrano (Cabra Corral),AES Argentina S.A.,AES Argentina S.A.,Estados Unidos,Juramento,-25.2712,-65.3298,Operacional,102,1973,Misto,https://www.argentina.gob.ar/economia/energia/energia-electrica/hidroelectrica/centrales-hidroelectricas,
Argentina,Mendoza,El Nihuil I,Pampa Energía S.A.,Pampa Energía S.A.,Argentina,Atuel,-34.9951826,-68.6308132,Operacional,74.24,1947,Privado,https://www.argentina.gob.ar/economia/energia/energia-electrica/hidroelectrica/centrales-hidroelectricas,
Argentina,San Juan,Punta Negra,Energía Provincial Sociedad del Estado EPSE,Energía Provincial Sociedad del Estado EPSE,Argentina,San Juan,-31.5210539,-68.8172695,Operacional,62,2015,Estatal,https://www.argentina.gob.ar/economia/energia/energia-electrica/hidroelectrica/centrales-hidroelectricas,
Argentina,Mendoza,Álvarez Condarco,Consorcio Potrerillos,Consorcio Potrerillos,Argentina,Mendoza,-33.0452,-69.0516,Operacional,61.6,2003,Privado,https://www.argentina.gob.ar/economia/energia/energia-electrica/hidroelectrica/centrales-hidroelectricas,
Argentina,Río Negro - La Pampa,Casa de Piedra,Ente Ejecutivo Presa Embalse Casa de Piedra,Ente Ejecutivo Presa Embalse Casa de Piedra,Argentina,Colorado,-38.2143,-67.1908,Operacional,60,1996,Estatal,https://www.argentina.gob.ar/economia/energia/energia-electrica/hidroelectrica/centrales-hidroelectricas,
Argentina,Córdoba,Los Molinos i,Empresa Provincial de Energía de Córdoba EPEC,Empresa Provincial de Energía de Córdoba EPEC,Argentina,Los Molinos,-31.838,-64.4452,Operacional,52,1953,Estatal,https://www.argentina.gob.ar/economia/energia/energia-electrica/hidroelectrica/centrales-hidroelectricas,
Argentina,Mendoza,Portezuelo del Viento,Provincia de Mendoza,Provincia de Mendoza,Argentina,Grande,-35.8294327496327,-70.010614204815,Planejado,210.1,Indeterminado,Estatal,https://www.mendoza.gov.ar/economia/portezuelo-del-viento-un-hito-para-mendoza/#2,
Argentina,Santa Cruz,Presidente Dr. Néstor Kirchner,Provincia de Santa Cruz,Provincia de Santa Cruz,Argentina,Santa Cruz,-50.2158784029126,-70.7539013278891,Planejado,950,Indeterminado,Misto,https://www.minem.gob.ar/www/839/25793/represas-aprovechamientos-hidroelectricos-rio-santa-cruz,
Argentina,Santa Cruz,Gobernador Jorge Cepernic,Provincia de Santa Cruz,Provincia de Santa Cruz,Argentina,Santa Cruz,-50.1922770037546,-70.1104081943667,Planejado,360,Indeterminado,Misto,https://www.minem.gob.ar/www/839/25793/represas-aprovechamientos-hidroelectricos-rio-santa-cruz,
Chile,Biobío,Ralco,Enel Generación Chile S.A.,Enel Generación Chile S.A.,Itália,Biobío,-37.9984895,-71.5177113,Planejado,690,2004,Privado,http://generadoras.cl/tipos-energia/energia-hidroelectrica,
Chile,Maule,Pehuenche,Enel Generación Chile S.A.,Enel Generación Chile S.A.,Itália,Melado,-35.731351,-71.163586,Operacional,570,1991,Privado,http://generadoras.cl/tipos-energia/energia-hidroelectrica,
Chile,Metropolitana,Alto Maipo (Las Lajas y Alfalfal II),AES Chile S.A.,AES Chile S.A.,Estados Unidos,Maipo,-33.5947815936975,", -70.37277315609622",Operacional,531,2022,Privado,https://conocealtomaipo.cl/,
Chile,Maule,Colbún,Colbún S.A.,Colbún S.A.,Chile,Maule,-35.6861889,-71.3781827,Operacional,474,1985,Privado,http://generadoras.cl/tipos-energia/energia-hidroelectrica,
Chile,Biobío,Pangue,Enel Generación Chile S.A.,Enel Generación Chile S.A.,Itália,Biobío,-37.9099,-71.6087,Operacional,467,1996,Privado,http://generadoras.cl/tipos-energia/energia-hidroelectrica,
Chile,Biobío,El Toro,Enel Generación Chile S.A.,Enel Generación Chile S.A.,Itália,Laja,-37.2934,-71.4924,Operacional,450,1973,Privado,http://generadoras.cl/tipos-energia/energia-hidroelectrica,
Chile,O' Higgins,Rapel,Enel Generación Chile S.A.,Enel Generación Chile S.A.,Itália,Rapel,-34.0409,-71.5902,Operacional,378,1968,Privado,http://generadoras.cl/tipos-energia/energia-hidroelectrica,
Chile,Biobío,Angostura,Colbún S.A.,Colbún S.A.,Chile,Biobío,-37.7103,-71.8169,Operacional,321,2014,Privado,http://generadoras.cl/tipos-energia/energia-hidroelectrica,
Chile,Biobío,Antuco,Enel Generación Chile S.A.,Enel Generación Chile S.A.,Itália,Laja,-37.3103,-71.6264,Operacional,320,1981,Privado,http://generadoras.cl/tipos-energia/energia-hidroelectrica,
Chile,Biobío,Rucúe,Colbún S.A.,Colbún S.A.,Chile,Laja,-37.3603,-71.8657,Operacional,178,1998,Privado,http://generadoras.cl/tipos-energia/energia-hidroelectrica,
Chile,Metropolitana,Alfalfal,AES Chile S.A.,AES Chile S.A.,Estados Unidos,Colorado,-33.5012,-70.1927,Operacional,178,1991,Privado,http://generadoras.cl/tipos-energia/energia-hidroelectrica,
Chile,Los Lagos,Canutillar,Colbún S.A.,Colbún S.A.,Chile,Lago Chapo,-41.5281,-72.3417,Operacional,172,1990,Privado,http://generadoras.cl/tipos-energia/energia-hidroelectrica,
Chile,O' Higgins,La Confluencia,Pacific Hydro,Pacific Hydro,China,Tinguiririca,-34.8335,-70.5537,Operacional,163,2010,Privado,http://generadoras.cl/tipos-energia/energia-hidroelectrica,
Chile,O' Higgins,La Higuera,Pacific Hydro,Pacific Hydro,China,TInguiririca,-34.7515,-70.7143,Operacional,155,2010,Privado,http://generadoras.cl/tipos-energia/energia-hidroelectrica,
Chile,O' Higgins,Chacayes,Pacific Hydro,Pacific Hydro,China,Cachapoal,-34.2756,-70.4523,Operacional,112,2011,Privado,http://generadoras.cl/tipos-energia/energia-hidroelectrica,
Chile,Maule,Cipreses,Enel Generación Chile S.A.,Enel Generación Chile S.A.,Itália,Maule,-35.7872,-70.8084,Operacional,106,1955,Privado,http://generadoras.cl/tipos-energia/energia-hidroelectrica,
Chile,Maule,Machicura,Colbún S.A.,Colbún S.A.,Chile,Maule,-35.7324,-71.3979,Operacional,95,1985,Privado,http://generadoras.cl/tipos-energia/energia-hidroelectrica,
Chile,Biobío,Abanico,Enel Generación Chile S.A.,Enel Generación Chile S.A.,Itália,Laja,-37.3646,-71.4894,Operacional,93,1948,Privado,http://generadoras.cl/tipos-energia/energia-hidroelectrica,
Chile,Maule,Curillinque,Enel Generación Chile S.A.,Enel Generación Chile S.A.,Itália,Maule,-35.8055,-70.9417,Operacional,90,1993,Privado,http://generadoras.cl/tipos-energia/energia-hidroelectrica,
Chile,Biobío,Peuchén,Duqueco,Duqueco,Chile,Duqueco,-37.5404,-71.5965,Operacional,85,2000,Privado,http://generadoras.cl/tipos-energia/energia-hidroelectrica,
Chile,O' Higgins,Sauzal,Enel Generación Chile S.A.,Enel Generación Chile S.A.,Itália,Rapel,-34.2527438,-70.6308145,Operacional,77,1948,Privado,http://generadoras.cl/tipos-energia/energia-hidroelectrica,
Chile,Biobío,Quilleco,Colbún S.A.,Colbún S.A.,Chile,Laja,-37.336018,-71.9567,Operacional,71,2007,Privado,http://generadoras.cl/tipos-energia/energia-hidroelectrica,
Chile,Maule,Isla,Enel Generación Chile S.A.,Enel Generación Chile S.A.,Itália,Cipreses,-35.8095691,-70.8353459,Operacional,70,1963,Privado,http://generadoras.cl/tipos-energia/energia-hidroelectrica,
Chile,Los Lagos,Rucatayo,Statkraft S.A.,Statkraft S.A.,Noruega,Pilmaiquén,-40.6191,-72.7038,Operacional,60,2012,Privado,http://generadoras.cl/tipos-energia/energia-hidroelectrica,
Chile,O' Higgins,El Paso,HydroChile S.A.,HydroChile S.A.,Chile,De Las Damas,-34.964238,-70.419753,Operacional,60,2016,Privado,http://generadoras.cl/tipos-energia/energia-hidroelectrica,
Chile,Valparaíso,Hornitos,Colbún S.A.,Colbún S.A.,Chile,Aconcagua,-32.9013780070543,-70.2638824584065,Operacional,60,2008,Privado,http://generadoras.cl/tipos-energia/energia-hidroelectrica,
Chile,Biobío,Mampil,Duqueco,Duqueco,Chile,Duqueco,-37.5365547,-71.7069032,Operacional,55,2000,Privado,http://generadoras.cl/tipos-energia/energia-hidroelectrica,
Chile,Valparaíso,Blanco,Colbún S.A.,Colbún S.A.,Chile,Aconcagua,-32.917,-70.3289,Operacional,53,1993,Privado,http://generadoras.cl/tipos-energia/energia-hidroelectrica,
Chile,Los Ríos,Pullinque,Enel Generación Chile S.A.,Enel Generación Chile S.A.,Itália,Huanehue,-39.5957,-72.2175,Operacional,51,1962,Privado,http://generadoras.cl/tipos-energia/energia-hidroelectrica,
Chile,O' Higgins,Nido de Águila,Pacific Hydro,Pacific Hydro,China,Cortaderal,-34.411336132493,-70.3143045510668,Planejado,125,Indeterminado,Privado,http://generadoras.cl/tipos-energia/energia-hidroelectrica,
Chile,Los Ríos,San Pedro,Colbún S.A.,Colbún S.A.,Chile,San Pedro,-39.7601025976036,-72.5820045802433,Planejado,170,Indeterminado,Privado,https://www.centralsanpedro.cl/que-es-san-pedro/,
Chile,Maule,Los Cóndores,Enel Generación Chile S.A.,Enel Generación Chile S.A.,Itália,Maule,-35.9161235950191,-70.6295453207714,Planejado,153,Indeterminado,Privado,https://www.eleconomistaamerica.com.ar/empresas-eAm-chile/noticias/10692832/07/20/Enel-Chile-retrasa-puesta-en-marcha-de-hidroelectrica-Los-Condores.html,
Chile,Los Lagos – Los Ríos,Los Lagos,Statkraft S.A.,Statkraft S.A.,Noruega,Pilmaiquén,-40.6237978724068,-72.6666520499681,Planejado,52,Indeterminado,Privado,https://www.statkraft.cl/nuestros-proyectos/proyecto-los-lagos/,
Paraguai / Brasil,Hernandarias - Foz do Iguacu,Itaipu Binacional,Itaipú Binacional,Paraguai (50%) / Brazil (50%),Paraguai / Brasil,Paraná,-25.4080536,-54.591202,Operacional,14000,1984,Estatal,https://www.ssme.gov.py/vmme/index.php?option=com_content&view=article&id=1216&,
Paraguai,Alto Paraná,Acaray,Administración Nacional de Electricidad ANDE,Administración Nacional de Electricidad ANDE,Paraguai,Acaray,-25.458735682669,-54.6288074735422,Operacional,210,1968,Estatal,https://www.ssme.gov.py/vmme/index.php?option=com_content&view=article&id=1216&,
Uruguai,Río Negro - Soriano,Constitución (Represa del Palmar),Administración Nacional de Usinas y Transmisiones Eléctricas UTE,Administración Nacional de Usinas y Transmisiones Eléctricas UTE,Uruguai,Negro,-33.0558612824987,-57.4519166156805,Operacional,333,1982,Estatal,https://www.lr21.com.uy/comunidad/162075-inauguracion-de-la-central-hidroelectrica-de-palmar-icono-del-fraude-en-los-80?utm_source=redirects&utm_medium=dominiolargo&utm_campaign=301_Redirects,
Uruguai,Tacuarembó-Durazno,Rincón del Bonete (ex Dr. Gabriel Terra),Administración Nacional de Usinas y Transmisiones Eléctricas UTE,Administración Nacional de Usinas y Transmisiones Eléctricas UTE,Uruguai,Negro,-32.8306805585296,-56.420295872832,Operacional,160,1945,Estatal,https://municipiopasodelostoros.com/?page_id=141,
Uruguai,Río Negro - Durazno,RIncón de Baygorria,Administración Nacional de Usinas y Transmisiones Eléctricas UTE,Administración Nacional de Usinas y Transmisiones Eléctricas UTE,Uruguai,Negro,-32.8735413389556,-56.8059053095825,Operacional,108,1960,Estatal,https://www.atecsa.com.ar/generacion/C.H.-Rinc%C3%B3n-de-Baygorria,
,,,,,,,,,,,,,,
Guiana Francesa,Cayenne,Petit-Saut,Électricité de France,Électricité de France,França,Sinnamary,5.06194,-53.0486,Operacional,113.6,1996,Misto,https://www.barrages-cfbr.eu/Barrage-de-Petit-Saut.html,
Guiana,Potaro-Siparuni,Amaila Falls,China Railway Group Limited,China Railway Group Limited,China,Kuribrong,5.3513889,-59.5580556,Planejado,165 ,Indeterminado,Misto,https://www.bnamericas.com/en/news/guyana-grants-no-objection-to-amaila-falls-hydropower-project-afhp-and-the-new-demerara-harbour-bridge-ndhb,
Venezuela,Angostura y Piar,Simón Bolívar (Guri),Corporación Eléctrica Nacional S.A.,Corporación Eléctrica Nacional S.A.,Venezuela,Caroní,7.765322,-62.999828,Operacional,10235 ,1978 (1 Phase) / 1986 (2 Phase),Estatal,http://www.corpoelec.gob.ve/central-hidroel%C3%A9ctrica-sim%C3%B3n-bol%C3%ADvar-guri-opera-con-total-normalidad,
Venezuela,Caroni,Antonio José de Sucre (Macagua),Corporación Eléctrica Nacional S.A.,Corporación Eléctrica Nacional S.A.,Venezuela,Caroní,8.304698,-62.668748,Operacional,3152 ,1959,Estatal,http://www.corpoelec.gob.ve/proyectos/rehabilitaci%C3%B3n-planta-hidroel%C3%A9ctrica-j-sucre-macagua-i,
Venezuela,Caroni,Francisco de Miranda (Caruachi),Corporación Eléctrica Nacional S.A.,Corporación Eléctrica Nacional S.A.,Venezuela,Caroní,8.159447,-62.797913,Operacional,2196 ,2006,Estatal,http://www.corpoelec.gob.ve/noticias/central-hidroel%C3%A9ctrica-francisco-de-miranda-en-caruachi-otro-a%C3%B1o-generando-energ%C3%ADa-para-el-,
Venezuela,Angostura,Manuel Piar (Tocoma),Corporación Eléctrica Nacional S.A.,Corporación Eléctrica Nacional S.A.,Venezuela,Caroní,7.907347,-63.028914,Planejado,2160 ,Indeterminado,Estatal,https://www.caf.com/es/actualidad/noticias/2008/01/us-600-millones-para-central-hidroelectrica-en-venezuela/,
Venezuela,Ezequiel Zamora y Padre Noguera,Fabricio Ojeda (La vueltosa),Corporación Eléctrica Nacional S.A.,Corporación Eléctrica Nacional S.A.,Venezuela,Sioca,7.747234,-71.466712,Operacional,514 ,2020,Estatal,http://www.corpoelec.gob.ve/proyectos/central-hidroel%C3%A9ctrica-fabricio-ojeda,
Venezuela,Uribante,Leonardo Ruíz Pineda (San Agatón),Corporación Eléctrica Nacional S.A.,Corporación Eléctrica Nacional S.A.,Venezuela,Uribante,7.912371,-71.746569,Operacional,300 ,1990,Estatal,http://www.corpoelec.gob.ve/comisi%C3%B3n-ministerial-certifica-operatividad-de-la-central-hidroel%C3%A9ctrica-%E2%80%9Cleonardo-ruiz-pineda%E2%80%9D,
Venezuela,Rangel y Bolivar,José Antonio Paez,Corporación Eléctrica Nacional S.A.,Corporación Eléctrica Nacional S.A.,Venezuela,Santo Domingo,8.884517,-70.633773,Inativa 2017,240 ,1973,Estatal,https://www.lossinluzenlaprensa.com/complejo-hidroelectrico-gral-jose-antonio-paez-42-anos-de-luz-para-el-sur-occidente-del-pais/,
Bolívia,Chapare,Corani,ENDE Corani,Ende Corporación,Bolívia,Paracti,-17.212539,-65.875568,Operacional,64 ,1967,Estatal,http://www.endecorani.bo/index.php/pages/hidroelectrica/hidroelectrica-corani,
Bolívia,Quillacollo,Misicuni,ENDE Corani,Ende Corporación,Bolívia,Misicuni,-17.096508,-66.330379,Operacional,120 ,2017,Estatal,https://www.ende.bo/proyectos/resena/proyecto-hidroelectrico-misicuni,
Bolívia,Chapare,San José I,ENDE Corani,Ende Corporación,Bolívia,Paracti,-17.16851,-65.786435,Operacional,55 ,2018,Estatal,http://www.endecorani.bo/index.php/pages/hidroelectrica/hidroelectrica-san-jose-1,
Bolívia,Chapare,San José II,ENDE Corani,Ende Corporación,Bolívia,Paracti,-17.102534,-65.784808,Operacional,69 ,2019,Estatal,http://www.endecorani.bo/index.php/pages/hidroelectrica/hidroelectrica-san-jose-2,
Bolívia,Chapare,Santa Isabel,ENDE Corani,Ende Corporación,Bolívia,Paracti,-17.191791,-65.822382,Operacional,91 ,1973,Estatal,http://www.endecorani.bo/index.php/pages/hidroelectrica/hidroelectrica-santa-isabel,
Bolívia,Carrasco,Cuenca del río Ivirizu,ENDE Valle Hermoso,Ende Corporación,Bolívia,Invirizu,-17.485955,-65.278422,Planejado,290.2 ,Indeterminado,Estatal,http://www.evh.bo/index.php/portfolio/17-proyecto-ivirizu,
Bolívia,Inquisivi,Miguillas,ENDE Corani,Ende Corporación,Bolívia,Miguillas,-16.925358,-67.325122,Planejado,203 ,Indeterminado,Estatal,https://www.ende.bo/proyectos/resena/proyecto-hidroelectrico-miguillas,
Bolívia,Valle Grande y Cordillera,Rositas,ENDE Corporación,Ende Corporación,Bolívia,Grande,-18.930973,-63.527076,Planejado,600 ,Indeterminado,Estatal,https://www.ende.bo/proyectos/resena/proyecto--hidroelectrico-rositas,
Bolívia,Franz Tamayo,Chepete,ENDE Corporación,Ende Corporación,Bolívia,Beni,-14.896524,-67.674857,Planejado,3300 ,Indeterminado,Estatal,https://www.ende.bo/noticia/noticia/57,
Bolívia,Abel Iturralde y Gral. Ballivián,El Bala,ENDE Corporación,Ende Corporación,Bolívia,Beni,-14.543974,-67.49896,Planejado,350 ,Indeterminado,Estatal,https://www.ende.bo/proyectos/resena/hidroelectrico-el-bala,
Bolívia,Vaca Diez y Federico Román,Cachuela Espereanza,ENDE Corporación,Ende Corporación,Bolívia,Madera de Dios,-10.538643,-65.601397,Planejado,990 ,Indeterminado,Estatal,https://www.ende.bo/proyectos/resena/proyecto--hidroelectrico-cachuela-esperanza,
Bolívia,Itenez y Velasco,Binacional río Madera,ENDE Corporación,Ende Corporación,Bolívia,Madera de Dios y Mamoré,-10.380537,-65.389645,Planejado,1500 ,Indeterminado,Estatal,https://www.ende.bo/proyectos/resena/proyecto--hidroelectrico-rio-madera,
Bolívia,Chapare,Banda Azul,ENDE Corani,Ende Corporación,Bolívia,Paracti,-17.157138,-65.785546,Planejado,133.7 ,2024,Estatal,https://www.ende.bo/proyectos/resena/proyecto-hidroelectrico-banda-azul,
Bolívia,Chapare,Juntas Corani,ENDE Corani,Ende Corporación,Bolívia,Paracti,-16.995118,-65.581062,Planejado,439.4 ,Indeterminado,Estatal,https://www.ende.bo/proyectos/resena/proyecto-hidroelectrico-juntas-corani,
Bolívia,Chapare,Ambrosia,ENDE Corani,Ende Corporación,Bolívia,Paracti,-17.136719,-65.771813,Planejado,84.9 ,Indeterminado,Estatal,https://www.ende.bo/proyectos/resena/proyecto-hidroelectrico-ambrosia,
Bolívia,Chapare,Oquitas,ENDE Guaracachi,Ende Corporación,Bolívia,Parapeti,-20.018596,-63.220638,Planejado,125 ,Indeterminado,Estatal,https://www.ende.bo/proyectos/resena/proyecto-hidroelectrico-oquitas,
Bolívia,Sud Cinti y Eustaquio Méndez,Carrizal,ENDE Corporación,Ende Corporación,Bolívia,Camblaya,-20.998498,-65.051318,Planejado,346 ,Indeterminado,Estatal,https://www.ende.bo/proyectos/resena/proyecto--hidroelectrico-carrizal,
Bolívia,Chape,Aguas calientes II Arenales,ENDE Valle Hermoso,Ende Corporación,Bolívia,Parapeti,-20.183472,-63.785352,Planejado,94 ,Indeterminado,Estatal,https://www.ende.bo/proyectos/resena/proyecto-aguas-calientes-ii-arenales,
Bolívia,Chape,Icona,ENDE Corporación,Ende Corporación,Bolívia,Paracti,-17.144385,-65.779265,Planejado,101.6 ,Indeterminado,Estatal,https://www.ende.bo/proyectos/resena/proyecto-hidroelectrico-icona,
Bolívia,Rafael Bustillo,Chayanta,ENDE Valle Hermoso,Ende Corporación,Bolívia,Chayanta,-18.431524,-65.666757,Planejado,177 ,Indeterminado,Estatal,https://www.ende.bo/proyectos/resena/hidroelectrico-chayanta,
Bolívia,Muñecas,Muñecas,ENDE Valle Hermoso,Ende Corporación,Bolívia,Coroico,-15.50113,-67.84471,Planejado,140 ,Indeterminado,Estatal,https://www.ende.bo/proyectos/resena/hidroelectrico-munecas,
Bolívia,Aniceto Arce,Cambarí,ENDE Valle Hermoso,Ende Corporación,Bolívia,Bermejo,-21.837486,-65.364226,Planejado,93 ,Indeterminado,Estatal,https://www.ende.bo/proyectos/resena/proyecto-hidroelectrico-cambari,
Bolívia,Charcas y Mizque,Molineros,ENDE Valle Hermoso,Ende Corporación,Bolívia,Caine,-17.806688,-66.095245,Planejado,100.8 ,Indeterminado,Estatal,"https://www.ende.bo/proyectos/resena/proyecto-hidroelectrico-molineros#:~:text=Consiste%20en%20la%20construcci%C3%B3n%20de,la%20cuenca%20del%20r%C3%ADo%20Amazonas.",
Bolívia,Chapare,Santa Barbara,ENDE Corani,Ende Corporación,Bolívia,Paracati,-17.174911,-65.800394,Planejado,144 ,Indeterminado,Estatal,http://www.endecorani.bo/index.php/component/content/article?layout=edit&id=134,
Equador,Napo y Sucumbíos,Coca codo Sinclair,Coca codo Sinclair,Corporación Eléctrica del Ecuador,Equador,Quijos / Salado,-0.199425,-77.684014,Operacional,1500 ,2016,Estatal,https://www.recursosyenergia.gob.ec/central-hidroelectrica-coca-codo-sinclair/,
Equador,Azuay,Paute Molino,HidroPaute,Corporación Eléctrica del Ecuador,Equador,Paute,-2.575646,-78.509714,Operacional,1075 ,1983,Estatal,https://www.celec.gob.ec/electroguayas/index.php/sala-de-prensa/noticias/208-central-hidroelectrica-paute-molino-cumple-37-anos-de-operacion-continua-21-mayo-2020,
Equador,Azuay y Morona Santiago,Sopladora,HidroPaute,Corporación Eléctrica del Ecuador,Equador,Paute,-2.594112,-78.448599,Operacional,487 ,2016,Estatal,https://www.celec.gob.ec/celecsur/index.php/generacion/paute-sopladora,
Equador,Azuay y El Oro,Minas San Francisco,EnerJubones,Corporación Eléctrica del Ecuador,Equador,Jubones,-3.316242,-79.481517,Operacional,270 ,2019,Estatal,https://www.celec.gob.ec/celecsur/index.php/generacion/minas-san-francisco,
Equador,Tungurahua,San Francisco,HidroAgoyán,Corporación Eléctrica del Ecuador,Equador,Pastaza,-1.405135,-78.291562,Operacional,230 ,2019,Estatal,https://www.lombardi.ch/es-es/Paginas/References/Hydroelectric%20plants/References_5314.aspx,
Equador,Zamora Chinchipe,Delsitanisagua,GenSur,Corporación Eléctrica del Ecuador,Equador,Zamora,-4.037633,-78.981625,Operacional,180 ,2018,Estatal,https://www.recursosyenergia.gob.ec/proyecto-hidroelectrico-delsitanisagua/,
Equador,Azuay y Cañar,Mazar,HidroPaute,Corporación Eléctrica del Ecuador,Equador,Paute,-2.595654,-78.622308,Operacional,170 ,2010,Estatal,https://www.celec.gob.ec/celecsur/index.php/generacion/responsabilidad-social,
Equador,Tungurahua,Agoyan,HidroAgoyán,Corporación Eléctrica del Ecuador,Equador,Pastaza,-1.397984,-78.382229,Operacional,160 ,1987,Estatal,https://www.celec.gob.ec/hidroagoyan/index.php/centrales/agoyan,
Equador,Tungurahua,Pucara,HidroAgoyán,Corporación Eléctrica del Ecuador,Equador,Tungurahua,-1.079417,-78.455512,Operacional,73 ,1977,Estatal,https://www.celec.gob.ec/hidroagoyan/index.php/sala-de-prensa/noticias/404-la-central-hidroelectrica-pucara-cumple-42-anos-al-servicio-del-pais,
Equador,Pichincha y Imbabura,Manduriacu,Coca codo Sinclair,Corporación Eléctrica del Ecuador,Equador,Guayllabamba,0.213965,-78.912514,Operacional,63.36 ,2015,Estatal,https://www.celec.gob.ec/cocacodosinclair/index.php/2015-09-07-17-45-09/footers/manduriacu,
Equador,Guayas,Marcel Laniado,HidroNación,Corporación Eléctrica del Ecuador,Equador,Daule,-0.928135,-79.752835,Operacional,213 ,1999,Estatal,https://www.celec.gob.ec/hidronacion/informaci%C3%B3n-t%C3%A9cnica/hidroel%C3%A9ctrica-marcel-laniado,
Equador,Azuay y Morona Santiago,Cardenillo,HidroPaute (will be managed by a private company),Corporación Eléctrica del Ecuador,Equador,Paute,-2.616208,-78.426897,Planejado,593 ,Indeterminado,Estatal  ,https://www.celec.gob.ec/celecsur/index.php/generacion/paute-cardenillo,
Equador,Morona Santiago,Zamora Santiago,HidroPaute,Corporación Eléctrica del Ecuador,Equador,Zamora,-3.018262,-78.216193,Planejado,3649 ,Indeterminado,Estatal,https://www.recursosyenergia.gob.ec/gobierno-nacional-impulsa-la-concesion-de-la-construccion-del-nuevo-proyecto-hidroelectrico-santiago/,
Equador,Napo,Quijos,Coca codo Sinclair,Corporación Eléctrica del Ecuador,Equador,Papallacta / Quijos,-0.435107,-77.968888,Planejado,50 ,Indeterminado,Estatal,https://www.celec.gob.ec/cocacodosinclair/index.php/2015-09-07-17-45-09/headers/quijos,
Equador,"Pichincha, Santo Domingo de los Tsáchilas y Cotopaxi",Toachi Pilaton,HidroToapi,Corporación Eléctrica del Ecuador,Equador,Toachi,-0.36759,-78.915071,Planejado,254.40 ,Indeterminado,Estatal,https://www.recursosyenergia.gob.ec/proyecto-hidroelectrico-toachi-pilaton/,
Colômbia,Guavio,Guavio,ENEL Colombia,Enel Green Power,Itália,Guavio,4.725985,-73.481748,Operacional,1250 ,1992,Privado,https://web.archive.org/web/20110916070829/http://www.ingetec.com.co/experiencia/textos-proyectos/proyecto-hidroelectricos/guavio.htm,
Colômbia,Oriennte,San Carlos,ISAGEN,Brookfield Asset Management,Canadá,San Carlos / Guatape,6.216675,-74.839354,Operacional,1240 ,1984,Privado,https://www.isagen.com.co/es/nuestro-negocio/generamos-energia,
Colômbia,Neira y Oriente,Chivor,AES Colombia,AES Corporation,Estados Unidos,Bata,4.88155,-73.230854,Operacional,1000 ,1982,Privado,https://www.banrepcultural.org/coleccion-bibliografica/especiales/central-hidroelectrica-de-chivor,
Colômbia,Yariguíes y Metropolitana,Sogamoso,ISAGEN,Brookfield Asset Management,Canadá,Sogamoso,7.101823,-73.409288,Operacional,819 ,2014,Privado,https://www.isagen.com.co/es/nuestro-negocio/generamos-energia,
Colômbia,Nordeste antioqueño,Porce III,Empresas Públicas de Medellín (EMP),Grupo EMP,Colômbia,Porce,6.939066,75.139218,Operacional,700 ,2011,Estatal,https://cu.epm.com.co/institucional/sobre-epm/nuestras-plantas/plantas-de-energia/centrales-hidroelectricas-epm#Minicentrales-Generaci-n-515,
Colômbia,Oriente,Guatapé,Empresas Públicas de Medellín (EMP),Grupo EMP,Colômbia,Nare,6.28213,-75.094846,Operacional,560 ,1971,Estatal,https://cu.epm.com.co/institucional/sobre-epm/nuestras-plantas/plantas-de-energia/centrales-hidroelectricas-epm#Minicentrales-Generaci-n-515,
Colômbia,Norte,Betania,ENEL Colombia,Enel Green Power,Itália,Magdalena,2.706978,-75.430027,Operacional,540 ,1987,Privado,https://www.enel.com.co/es/conoce-enel/enel-generacion/centrales-electricas.html,
Colômbia,Nordeste antioqueño,Porce II (Juan Guillermo Penagos Estrada),Empresas Públicas de Medellín (EMP),Grupo EMP,Colômbia,Porce,6.838952,-75.189291,Operacional,405 ,1999,Estatal,https://cu.epm.com.co/institucional/sobre-epm/nuestras-plantas/plantas-de-energia/centrales-hidroelectricas-epm#Minicentrales-Generaci-n-515,
Colômbia,Magdalena caldense,Miel I,ISAGEN,Brookfield Asset Management,Canadá,La Miel,5.560556,-74.886667,Operacional,396 ,2002,Privado,https://www.isagen.com.co/es/nuestro-negocio/generamos-energia,
Colômbia,Centro y Occidente,El Quimbo,ENEL Colombia,Enel Green Power,Itália,Magdalena,2.4506,-75.564402,Operacional,396 ,2015,Privado,https://www.anla.gov.co/proyectos/proyecto-de-interes-en-seguimiento-proyecto-hidroelectrico-el-quimbo,
Colômbia,Tierralta,Urra,Empresa Urrá S.A. E.S.P.,Empresa Urrá S.A. E.S.P.,Colômbia,Sinu,8.0125,-76.202752,Operacional,340 ,1993,Estatal,"https://urra.com.co/gestion-tecnica/#:~:text=URR%C3%81%20I%20es%20la%20%C3%BAnica,es%20de%20930%20GWh%2Fa%C3%B1o.",
Colômbia,"Sumapaz, Tequendama y Soacha",La Guaca (Pagua),ENEL Colombia,Enel Green Power,Itália,Bogotá,4.589578,-74.459805,Operacional,324 ,1987,Privado,https://www.enel.com.co/es/conoce-enel/enel-generacion/centrales-electricas.html,
Colômbia,Magdalena Medio y Norte,Salvajina,CELSIA COLOMBIA S.A. E.S.P.,Grupo Argos,Colômbia,Cauca,2.943517,-76.705021,Operacional,285 ,1986,Privado,https://www.celsia.com/wp-content/uploads/2021/04/CENTRAL-HIDROELECTRICA-SALVAJINA.pdf,
Colômbia,Valle de Aburrá,La Tasajera,Empresas Públicas de Medellín (EMP),Grupo EMP,Colômbia,Grande,6.412809,-75.429378,Operacional,306 ,1993,Estatal,https://cu.epm.com.co/institucional/sobre-epm/nuestras-plantas/plantas-de-energia/centrales-hidroelectricas-epm#Minicentrales-Generaci-n-515,
Colômbia,"Sumapaz, Tequendama y Soacha",Paraiso (Pagua),ENEL Colombia,Enel Green Power,Itália,Bogotá,4.571157,-74.402665,Operacional,276 ,1986,Privado,https://www.enel.com.co/es/conoce-enel/enel-generacion/centrales-electricas.html,
Colômbia,Oriente,Playas,Empresas Públicas de Medellín (EMP),Grupo EMP,Colômbia,Nare / Guatape,6.292395,-74.940478,Operacional,207 ,1979,Estatal,https://cu.epm.com.co/institucional/sobre-epm/nuestras-plantas/plantas-de-energia/centrales-hidroelectricas-epm#Minicentrales-Generaci-n-515,
Colômbia,Nordeste y Oriente,Jaguas,ISAGEN,Brookfield Asset Management,Canadá,Nare / Guatape,6.348813,-75.004897,Operacional,170 ,1988,Privado,https://www.isagen.com.co/es/nuestro-negocio/generamos-energia,
Colômbia,Tequendama,Dario Valencia Samper,ENEL Colombia,Enel Green Power,Itália,Bogotá,4.602191,-74.431509,Operacional,150 ,1973,Privado,https://www.power-technology.com/marketdata/dario-valencia-samper-colombia/,
Colômbia,Centro Sur,San Francisco,Central Hidroeléctrica de Caldas S.A. E.S.P.,Grupo EMP,Colômbia,Cauca,5.050122,-75.74289,Operacional,135 ,1969,Estatal,https://www.bnamericas.com/es/perfil-proyecto/central-hidroelectrica-san-francisco,
Colômbia,Centro,Calima,CELSIA COLOMBIA S.A. E.S.P.,Grupo Argos,Colômbia,Calima / Bravo,3.879706,-76.559661,Operacional,132 ,1966,Privado,https://www.celsia.com/wp-content/uploads/2021/04/CENTRAL-HIDROELECTRICA-CALIMA.pdf,
Colômbia,Sur,Amoya La Esperanza,ISAGEN,Brookfield Asset Management,Canadá,Amoya / Davis,3.808758,-75.584608,Operacional,80 ,2013,Privado,https://www.isagen.com.co/es/nuestro-negocio/generamos-energia,
Colômbia,Nordeste y Valle de Aburrá,Carlos Lleras,Hidroeléctrica del Alto Porce S.A.S. E.S.P.,Hidroeléctrica del Alto Porce S.A.S. E.S.P.,Colômbia,Medellin,6.520852,-75.251646,Operacional,78.2 ,2016,Privado,https://www.mincivil.com/?portfolio=central-hidroelectrica-carlos-lleras-restrepo,
Colômbia,Oriente,Escuela de Minas,Hidroeléctrica del Alto Porce S.A.S. E.S.P.,Hidroeléctrica del Alto Porce S.A.S. E.S.P.,Colômbia,Negro,6.232607,-75.266752,Operacional,55 ,2019,Privado,https://www.mincivil.com/?portfolio=central-2,
Colômbia,Sur,Cucuana,CELSIA COLOMBIA S.A. E.S.P.,Grupo Argos,Colômbia,Cucuana / San Marcos,4.01666,-75.52385,Operacional,56 ,2015,Privado,https://conconcreto.com/hidroelectrica-cucuana/,
Colômbia,Suroriente,Prado (Hidroprado),CELSIA COLOMBIA S.A. E.S.P.,Grupo Argos,Colômbia,Prado / Cunday,3.754893,-74.891245,Operacional,51 ,1973,Privado,https://www.celsia.com/es/quienes-somos/centrales-hidroelectricas/,
Colômbia,Occidente,Alto y Bajo Anchicayá (Alban),CELSIA COLOMBIA S.A. E.S.P.,Grupo Argos,Colômbia,Achicaya,3.536419,-76.869701,Operacional,429 ,1995,Privado,https://www.celsia.com/es/quienes-somos/centrales-hidroelectricas/,
Colômbia,Oriente,San Miguel,ISAGEN,Brookfield Asset Management,Canadá,Calderas,5.968637,-75.051102,Operacional,52 ,2015,Privado,https://www.isagen.com.co/es/nuestro-negocio/generamos-energia,
Colômbia,Nordeste antioqueño,Guadalupe III (Guatron),Empresas Públicas de Medellín (EMP),Grupo EMP,Colômbia,Guadalupe,6.792916,-75.22716,Operacional,270 ,1962,Estatal,https://www.grupo-epm.com/site/Portals/1/plegables/HIDROELECTRICAS/p045%20Desarrollo%20hidroel%C3%A9ctrico%20del%20R%C3%ADo%20Guadalupe.pdf,
Colômbia,Nordeste antioqueño,Guadalupe IV (Diego Calle Restrepo) (Guatron),Empresas Públicas de Medellín (EMP),Grupo EMP,Colômbia,Guadalupe,6.778337,-75.249498,Operacional,216 ,1985,Estatal,https://www.grupo-epm.com/site/Portals/1/plegables/HIDROELECTRICAS/p045%20Desarrollo%20hidroel%C3%A9ctrico%20del%20R%C3%ADo%20Guadalupe.pdf,
Colômbia,Norte,Hidroituango,"Empresas Públicas de Medellín - mode BOOMT (Build, Operate, Own, Maintain and Transfer) to Hidroelectrica Ituango S.A., E.S.P.",Grupo EMP,Colômbia,Cauca,7.133043,-75.658917,Planejado,2400 ,Indeterminado,Privado,https://www.hidroituango.com.co/hidroituango,
Colômbia,Puerto Rico,La Paz (Caqueta),Universal Stream S.A. E.S.P.,Universal Stream S.A. E.S.P.,Colômbia,Guayas,1.867064,-75.107291,Planejado,659 ,2025,Privado,https://www.hydroreview.com/regulation-and-policy/universal-stream-submits-plans-for-648-mw-la-paz-hydroelectric-project-in-colombia/#gref,
Colômbia,Magdalena caldense y Oriente antioqueño,Butantan,GENSA S.A. E.S.P.,GENSA S.A. E.S.P.,Colômbia,Samana Sur,5.97193,-74.935241,Planejado,460 ,2029,Estatal,https://www.gensa.com.co/proyectos/butantan/,
Colômbia,Lengupá,Lengupa,GESTION Y DISEÑOS ELECTRICOS S.A. - GDEL S.A.,GESTION Y DISEÑOS ELECTRICOS S.A. - GDEL S.A.,Colômbia,Lengupa,5.004471,-73.11809,Planejado,98 ,2024,Privado,https://www.power-technology.com/marketdata/lengupa-hydroelectric-project-colombia/,
Colômbia,Sur,Chilí,Energias del Rio Chili S.A.S.,Energias del Rio Chili S.A.S.,Colômbia,Chili,4.160478,-75.363018,Planejado,66 ,2027,Privado,https://docplayer.es/222136248-Energias-del-rio-chili-s-a-s.html,
Peru,Jauja,Chimay,Chinango S.A.C.,Enel Green Power,Itália,Tulumayo,-11.307137,-75.305394,Operacional,142.8 ,2000,Privado,https://www.enel.pe/es/inversionistas/enel-generacion-peru/chimay.html,
Peru,Yauyos y Cañete,El Platanal,Compañia Electrica El Platanal S.A.,CELEPSA,Peru,Cañete,-12.837612,-75.977138,Operacional,220 ,2010,Privado,https://celepsa.com/las-hidroelectricas/,
Peru,Tayacaja,Antunez de Mayolo,Electroperú S.A.,Electroperú S.A.,Peru,Mantaro,-12.354056,-74.655578,Operacional,798 ,1973,Estatal,http://www.electroperu.com.pe/ElectroWebPublica/PaginaExterna.aspx?id=12&modo=submenu3ero&idioma=ESPANOL,
Peru,Tayacaja,Restitucion,Electroperú S.A.,Electroperú S.A.,Peru,Mantaro,-12.349532,-74.64232,Operacional,210 ,1984,Estatal,http://www.electroperu.com.pe/ElectroWebPublica/PaginaExterna.aspx?id=12&modo=submenu3ero&idioma=ESPANOL,
Peru,Arequipa,Charcani V,Emp. de Generación Eléctrica de Arequipa S. A.,Emp. de Generación Eléctrica de Arequipa S. A.,Peru,Chili,-12.349472,-71.448039,Operacional,145.4 ,1988,Estatal,http://www.cesel.com.pe/proyectos_8704_ch_charcani.html,
Peru,Urubamba,Machu Picchu,Empresa de Generacion Electrica Machupicchu S.A.,Empresa de Generacion Electrica Machupicchu S.A.,Peru,Vilcanota,-16.261806,-71.448039,Operacional,192.5 ,1955,Estatal,https://www.egemsa.com.pe/central-hidroelectrica-machupicchu,
Peru,Carabaya,San Gaban II,Empresa de Generación Eléctrica San Gabán S. A. (China Three Gorges Corporation (China) y EDP (Energías de Portugal)(Portugal)),Empresa de Generación Eléctrica San Gabán S. A.,Peru,San Gaban,-13.646859,-70.461427,Operacional,114 ,1999,Misto,http://www.sangaban.com.pe/index.aspx?seccion=8201,
Peru,Huánuco y Pachitea,Chaglla,Empresa de Generación Huallaga S.A.,China Three Gorges Corporation,China,Huallaga,-9.696394,-75.8351,Operacional,456 ,2016,Privado,https://www.osinergmin.gob.pe/seccion/centro_documental/electricidad/Documentos/PROYECTOS%20GFE/Acorde%C3%B3n/Generaci%C3%B3n/1.1.5.pdf,
Peru,Huarochirí,Huanza,Empresa de Generación Huanza S.A.,Compañía de Minas Buenaventura S.A.A.,Peru,Pallca y Conay,-11.656823,-76.481612,Operacional,96.8 ,2014,Privado,https://www.osinergmin.gob.pe/seccion/centro_documental/electricidad/Documentos/PROYECTOS%20GFE/Acorde%C3%B3n/Generaci%C3%B3n/1.2.1.pdf,
Peru,Huarochirí,Callahuanca,Enel Generación Perú S.A.A.,Enel Green Power,Itália,Santa Eulalia,-11.836888,-76.624342,Operacional,82.6 ,1938,Privado,https://www.enel.pe/es/inversionistas/enel-generacion-peru/callahuanca.html,
Peru,Huarochirí,Huinco,Enel Generación Perú S.A.A.,Enel Green Power,Itália,Santa Eulalia,-11.76497,-76.615018,Operacional,258.4 ,1922,Privado,https://www.enel.pe/es/inversionistas/enel-generacion-peru/huinco.html,
Peru,Huarochirí,Matucana,Enel Generación Perú S.A.A.,Enel Green Power,Itália,Rimac,-11.886175,-76.455556,Operacional,120 ,1972,Privado,https://www.enel.pe/es/inversionistas/enel-generacion-peru/matucana.html,
Peru,Lima,Moyopampa,Enel Generación Perú S.A.A.,Enel Green Power,Itália,Rimac,-11.927801,-76.689408,Operacional,75.4 ,1950,Privado,https://www.enel.pe/es/inversionistas/enel-generacion-peru/moyopampa.html,
Peru,Pasco,Yuncan,ENGIE EnergÍa Perú S.A.,ENGIE,França,Paucartambo / Huachón,-10.72245,-75.644335,Operacional,130.1 ,2005,Privado,https://engie-energia.pe/wp-content/uploads/2020/11/Brochure-C-H-Yuncan.pdf,
Peru,Huaylas,Quitaracsa,ENGIE EnergÍa Perú S.A.,ENGIE,França,Quitaracsa,-8.805679,-77.853961,Operacional,115 ,2014,Privado,https://engie-energia.pe/wp-content/uploads/2020/11/Brochure_Quitaracsa_web.pdf,
Peru,Urubamba,Santa Teresa II,Inland Energy S.A.C.,China Three Gorges Corporation,China,Vilcanota,-13.135551,-72.583776,Planejado,100 ,2028,Privado,https://www.osinergmin.gob.pe/seccion/centro_documental/electricidad/Documentos/PROYECTOS%20GFE/Acorde%C3%B3n/Generaci%C3%B3n/3.2.25.pdf,
Peru,Tayacaja,Cerro del Aguila,Kallpa Generación S.A.,Nautilus Energy Holding LLC,Ilhas Cayman,Mantaro,-12.291278,-74.684103,Operacional,524.6 ,2012,Privado,https://www.osinergmin.gob.pe/seccion/centro_documental/electricidad/Documentos/PROYECTOS%20GFE/Acorde%C3%B3n/Generaci%C3%B3n/1.1.4.pdf,
Peru,Huaylas,Cañon del Pato,Orazul Energy Perú S.A.,Grupo ISA,Colômbia,Santa,-8.812961,-77.852305,Operacional,246.6 ,1967,Privado,https://www.sectorelectricidad.com/14401/historia-de-la-central-hidroelectrica-del-canon-del-pato-peru/,
Peru,Chota,Carhuaquero,Orazul Energy Perú S.A.,Grupo ISA,Colômbia,Chancay,-6.611658,-79.239172,Operacional,90 ,1995,Privado,https://www.coes.org.pe/Portal/FichaTecnica/FichaTecnica/DatosCentralH?id=264&iFamilia=4,
Peru,Paccha,Malpaso,Statkraft Perú S.A.,SN Power,Noruega,Mantaro,-11.417771,-76.036036,Operacional,54.4 ,1937,Privado,https://www.statkraft.com/globalassets/1-statkraft-public/peru/pdf/malpaso-espanol.pdf,
Peru,Junin,Yaupi,Statkraft Perú S.A. (SN Power),SN Power,Noruega,Paucartambo,-10.743161,-75.535953,Operacional,113.7 ,1957,Privado,https://www.statkraft.nl/globalassets/1-statkraft-public/peru/pdf/yaupi-espanol.pdf,
Peru,Huaura y Oyón,Cheves,Statkraft Perú S.A. (SN Power),SN Power,Noruega,Huaura / Checras,-10.885011,-76.975501,Operacional,171.7 ,2015,Privado,https://www.statkraft.com/globalassets/7-statkraft-peru/06-media/pdf-factsheets/factsheet-cheves-espanol.pdf,
Peru,Cutervo,Veracruz,Compañia Energetica Veracruz S.A.,Compañia Energetica Veracruz S.A.,Peru,Marañon,-5.281252,-78.426473,Planejado,635 ,2022,Privado,https://www.osinergmin.gob.pe/seccion/centro_documental/electricidad/Documentos/PROYECTOS%20GFE/Acorde%C3%B3n/Generaci%C3%B3n/3.2.7.pdf,
Peru,Cortegana,Chadin II,AC Energia S.A.,Novonor (formerly Odebrecht),Brasil,Marañon,-6.427335,-78.225408,Planejado,600 ,2023,Privado,https://www.osinergmin.gob.pe/seccion/centro_documental/electricidad/Documentos/PROYECTOS%20GFE/Acorde%C3%B3n/Generaci%C3%B3n/3.2.6.pdf,
Peru,Bagua,Lorena,Amazonas Energía S.A.C.,Andrade Gutierrez,Brasil,Marañon,-6.103668,-78.496136,Planejado,650 ,Indeterminado,Privado,http://maranonwaterkeeper.org/wp-content/uploads/2017/11/evap_Parte1.pdf,
Peru,"Celendín, San Marcos, Chachapoyas y Bolivar",Rio Grande I y II,Odebrecht Energía del Perú S.A.C.,Novonor (formerly known as Odebrecht),Brasil,Marañon,-6.968982,-77.994795,Planejado,750 ,Indeterminado,Privado,http://www.minem.gob.pe/minem/archivos/file/DGGAE/DGGAE/ARCHIVOS/estudios/EIAS%20-%20electricidad/EIA/EIA-ODEBRECHT-2015/RE-EIA%20R%C3%ADo%20Grande.pdf,
Peru,Carabaya,San Gabán III,Hydro Global Perú S.A.C. (China Three Gorges Corporation (China) y EDP (Energías de Portugal)(Portugal)),Empresa de Generación Eléctrica San Gabán S. A.,Peru,San Gaban,-13.51244,-70.423743,Planejado,205.8 ,2023,Misto,https://www.osinergmin.gob.pe/seccion/centro_documental/electricidad/Documentos/PROYECTOS%20GFE/Acorde%C3%B3n/Generaci%C3%B3n/3.1.3.pdf,
Peru,Caylloma,Molloco,Generadora Eléctrica Molloco S.A.C.,Corsan (España) - Engevix (Brazil),Espanha / Brasil,Illigua / Molloco / Huaruro,-15.02055,-72.140032,Planejado,280 ,2020,Privado,https://www.osinergmin.gob.pe/seccion/centro_documental/electricidad/Documentos/PROYECTOS%20GFE/Acorde%C3%B3n/Generaci%C3%B3n/3.1.2.pdf,
Peru,Canchis,Pucara,Empresa Generación Hidroelectrica del Cusco S.A.,Empresa Generación Hidroelectrica del Cusco S.A.,Peru,Urubamba / Salca / Acco,-14.114251,-71.417146,Planejado,178 ,2017,Estatal,https://www.osinergmin.gob.pe/seccion/centro_documental/electricidad/Documentos/PROYECTOS%20GFE/Acorde%C3%B3n/Generaci%C3%B3n/3.1.1.pdf,
Peru,Concepción,Tulumayo IV,EGEJUNIN – TULUMAYO IV S.A.C.,GCZ ingenieros S.A.C.,Peru,Tulumayo,-11.666262,-75.086085,Planejado,56.2 ,2017,Privado,https://www.osinergmin.gob.pe/seccion/centro_documental/electricidad/Documentos/PROYECTOS%20GFE/Acorde%C3%B3n/Generaci%C3%B3n/3.2.10.pdf,
Peru,Concepción,Tulumayo V,EGEJUNIN – TULUMAYO V S.A.C.,GCZ ingenieros S.A.C.,Peru,Tulumayo,-11.636039,-75.087042,Planejado,83.2 ,2021,Privado,https://www.osinergmin.gob.pe/seccion/centro_documental/electricidad/Documentos/PROYECTOS%20GFE/Acorde%C3%B3n/Generaci%C3%B3n/3.2.13.pdf,
Peru,Lambayeque,Olmos 1,SINDICATO ENERGÉTICO S.A. – SINERSA,SINDICATO ENERGÉTICO S.A. – SINERSA,Peru,Huancabamba,-5.921283,-79.535424,Planejado,51 ,2026,Privado,https://www.osinergmin.gob.pe/seccion/centro_documental/electricidad/Documentos/PROYECTOS%20GFE/Acorde%C3%B3n/Generaci%C3%B3n/3.2.9.pdf,
Peru,Jauja,Curibamba,Enel Generación Perú S.A.A.,Enel Green Power,Italia,Comas / Uchubamba,-11.381176,-75.25654,Planejado,195 ,2021,Privado,https://www.osinergmin.gob.pe/seccion/centro_documental/electricidad/Documentos/PROYECTOS%20GFE/Acorde%C3%B3n/Generaci%C3%B3n/3.2.8.pdf,
Peru,Huamalies,Belo Horizonte,Compañia Energetica del Centro S.A.C.,Novonor (formerly Odebrecht),Brasil,Monzon,-9.258072,-76.07563,Planejado,180 ,2021,Privado,https://www.osinergmin.gob.pe/seccion/centro_documental/electricidad/Documentos/PROYECTOS%20GFE/Acorde%C3%B3n/Generaci%C3%B3n/3.2.3.pdf,
Peru,Carabaya,Anto Ruiz III,Nueva Esperanza Hydro S.A.,Nueva Esperanza Hydro S.A.,Peru,Ayapata,-13.767527,-70.302712,Planejado,102.1 ,2025,Privado,https://www.osinergmin.gob.pe/seccion/centro_documental/electricidad/Documentos/PROYECTOS%20GFE/Acorde%C3%B3n/Generaci%C3%B3n/3.2.22.pdf,
Peru,Carabaya,Anto Ruiz IV,Nueva Esperanza Hydro S.A.,Nueva Esperanza Hydro S.A.,Peru,Ayapata,-13.766234,-70.296168,Planejado,103.8 ,2026,Privado,https://www.osinergmin.gob.pe/seccion/centro_documental/electricidad/Documentos/PROYECTOS%20GFE/Acorde%C3%B3n/Generaci%C3%B3n/3.2.23.pdf,
Peru,Quispicanchi,TTIO,Electro Araza S.A.C.,Electro Araza S.A.C.,Peru,Araza,-13.595429,-70.970952,Planejado,80 ,2027,Privado,https://www.osinergmin.gob.pe/seccion/centro_documental/electricidad/Documentos/PROYECTOS%20GFE/Acorde%C3%B3n/Generaci%C3%B3n/3.2.29.pdf,
Peru,Quispicanchi,Capiri,Electro Araza S.A.C.,Electro Araza S.A.C.,Peru,Araza,-13.591882,-70.962533,Planejado,80 ,2027,Privado,https://www.osinergmin.gob.pe/seccion/centro_documental/electricidad/Documentos/PROYECTOS%20GFE/Acorde%C3%B3n/Generaci%C3%B3n/3.2.30.pdf,
Peru,Pachitea - Huanuco,Huallaga I,Central Hidroelectrica Huallaga Hydro S.A.,Grupo Ibereólica Renovables,Espanha,Huallaga,-9.82008,-75.83522,Planejado,392 ,2027,Privado,http://www.osinerg.gob.pe/seccion/centro_documental/electricidad/Documentos/PROYECTOS%20GFE/Acorde%C3%B3n/Generaci%C3%B3n/3.2.32.pdf,
Peru,Caylloma,Lluclla,Inland Energy S.A.C.,China Three Gorges Corporation,China,Sihuas,-16.174613,-72.033956,Planejado,288 ,2025,Privado,https://www.osinergmin.gob.pe/seccion/centro_documental/electricidad/Documentos/PROYECTOS%20GFE/Acorde%C3%B3n/Generaci%C3%B3n/3.2.36.pdf,
,,,,,,,,,,,,,,
México,Nayarit,Aguamilpa (Solidaridad),Comisión Federal de Electricidad,Comisión Federal de Electricidad,México,Santiago,21.8432748,-104.8053003,Operacional,960,1994,Estatal,https://web.archive.org/web/20110426042638/http://www.cfe.gob.mx/QuienesSomos/estadisticas/listadocentralesgeneradoras/Paginas/listadohidroelectricas.aspx,
México,Chiapas,Ángel Albino Corzo (Peñitas),Comisión Federal de Electricidad,Comisión Federal de Electricidad,México,Grijalva,17.4462405,-93.4625834,Operacional,420,1987,Estatal,https://web.archive.org/web/20110426042638/http://www.cfe.gob.mx/QuienesSomos/estadisticas/listadocentralesgeneradoras/Paginas/listadohidroelectricas.aspx,
México,Sinaloa,Bacurato,Comisión Federal de Electricidad,Comisión Federal de Electricidad,México,Sinaloa,25.8550607,-107.9084504,Operacional,92,1987,Estatal,https://web.archive.org/web/20110426042638/http://www.cfe.gob.mx/QuienesSomos/estadisticas/listadocentralesgeneradoras/Paginas/listadohidroelectricas.aspx,
México,Chiapas,Belisario Domínguez (Angostura),Comisión Federal de Electricidad,Comisión Federal de Electricidad,México,Grijalva,16.4012915,-92.7775516,Operacional,900,1976,Estatal,https://web.archive.org/web/20110426042638/http://www.cfe.gob.mx/QuienesSomos/estadisticas/listadocentralesgeneradoras/Paginas/listadohidroelectricas.aspx,
México,Guerrero,Carlos Ramírez Ulloa (El Caracol),Comisión Federal de Electricidad,Comisión Federal de Electricidad,México,Balsas,17.9478051,-99.9979887,Operacional,600,1986,Estatal,https://web.archive.org/web/20110426042638/http://www.cfe.gob.mx/QuienesSomos/estadisticas/listadocentralesgeneradoras/Paginas/listadohidroelectricas.aspx,
México,Michoacán,Cóbano,Comisión Federal de Electricidad,Comisión Federal de Electricidad,México,Atuto,19.166257,-102.011808,Operacional,52,1955,Estatal,https://web.archive.org/web/20110426042638/http://www.cfe.gob.mx/QuienesSomos/estadisticas/listadocentralesgeneradoras/Paginas/listadohidroelectricas.aspx,
México,Jalisco,Colimilla,Comisión Federal de Electricidad,Comisión Federal de Electricidad,México,Santiago,20.6999046,-103.2455527,Operacional,50,1951,Estatal,https://web.archive.org/web/20110426042638/http://www.cfe.gob.mx/QuienesSomos/estadisticas/listadocentralesgeneradoras/Paginas/listadohidroelectricas.aspx,
México,Michoacán,Cupatitzio,Comisión Federal de Electricidad,Comisión Federal de Electricidad,México,Cupatitzio,19.2692843,-102.079639,Operacional,72,1962,Estatal,https://web.archive.org/web/20110426042638/http://www.cfe.gob.mx/QuienesSomos/estadisticas/listadocentralesgeneradoras/Paginas/listadohidroelectricas.aspx,
México,Guerrero,El Infiernillo,Comisión Federal de Electricidad,Comisión Federal de Electricidad,México,Balsas,18.2734414,-101.9197671,Operacional,1120,1965,Estatal,https://web.archive.org/web/20110426042638/http://www.cfe.gob.mx/QuienesSomos/estadisticas/listadocentralesgeneradoras/Paginas/listadohidroelectricas.aspx,
México,Hidalgo,Fernando Hiriart Balderrama (Zimapán),Comisión Federal de Electricidad,Comisión Federal de Electricidad,México,Moctezuma,20.663505,-99.5031887,Operacional,292,1996,Estatal,https://web.archive.org/web/20110426042638/http://www.cfe.gob.mx/QuienesSomos/estadisticas/listadocentralesgeneradoras/Paginas/listadohidroelectricas.aspx,
México,Coahuila,La Amistad,Comisión Federal de Electricidad,Comisión Federal de Electricidad,México,Bravo,29.4488181,-101.0610814,Operacional,66,1987,Estatal,https://web.archive.org/web/20110426042638/http://www.cfe.gob.mx/QuienesSomos/estadisticas/listadocentralesgeneradoras/Paginas/listadohidroelectricas.aspx,
México,Nayarit,Leonardo Rodríguez Alcaine (El Cajón),Comisión Federal de Electricidad,Comisión Federal de Electricidad,México,Santiago,21.4293261,-104.4541025,Operacional,750,2007,Estatal,https://web.archive.org/web/20110426042638/http://www.cfe.gob.mx/QuienesSomos/estadisticas/listadocentralesgeneradoras/Paginas/listadohidroelectricas.aspx,
México,Sinaloa,Luis Donaldo Colosio (Huites),Comisión Federal de Electricidad,Comisión Federal de Electricidad,México,Fuerte,26.8440048,-108.3701887,Operacional,422,1996,Estatal,https://web.archive.org/web/20110426042638/http://www.cfe.gob.mx/QuienesSomos/estadisticas/listadocentralesgeneradoras/Paginas/listadohidroelectricas.aspx,
México,Jalisco,Manuel M. Diéguez (Santa Rosa),Comisión Federal de Electricidad,Comisión Federal de Electricidad,México,Santiago,20.9093898,-103.7073505,Operacional,61,1964,Estatal,https://web.archive.org/web/20110426042638/http://www.cfe.gob.mx/QuienesSomos/estadisticas/listadocentralesgeneradoras/Paginas/listadohidroelectricas.aspx,
México,Puebla,Mazatepec,Comisión Federal de Electricidad,Comisión Federal de Electricidad,México,Apulco,20.0142776,-97.4086141,Operacional,220,1962,Estatal,https://web.archive.org/web/20110426042638/http://www.cfe.gob.mx/QuienesSomos/estadisticas/listadocentralesgeneradoras/Paginas/listadohidroelectricas.aspx,
México,Chiapas,Nezahualcóyotl (Malpaso),Comisión Federal de Electricidad,Comisión Federal de Electricidad,México,Grijalva,17.180465,-93.5992193,Operacional,1080,1969,Estatal,https://web.archive.org/web/20110426042638/http://www.cfe.gob.mx/QuienesSomos/estadisticas/listadocentralesgeneradoras/Paginas/listadohidroelectricas.aspx,
México,Chiapas,Manuel Moreno Torres (Chicoasén),Comisión Federal de Electricidad,Comisión Federal de Electricidad,México,Grijalva,16.9428637,-93.1095378,Operacional,2400,1981,Estatal,https://web.archive.org/web/20110426042638/http://www.cfe.gob.mx/QuienesSomos/estadisticas/listadocentralesgeneradoras/Paginas/listadohidroelectricas.aspx,
México,Chiapas,Chicoasén II,Comisión Federal de Electricidad,Comisión Federal de Electricidad,México,Grijalva,16.9853484,-93.1647699,Planejado,240,Indeterminado,Estatal,https://www.proyectosmexico.gob.mx/proyecto_inversion/209-central-hidroelectrica-chicoasen-ii/,
México,Sonora,Plutarco Elías Calles (El Novillo),Comisión Federal de Electricidad,Comisión Federal de Electricidad,México,Yaqui,22.1423391,-102.4258831,Operacional,135,1964,Estatal,https://web.archive.org/web/20110426042638/http://www.cfe.gob.mx/QuienesSomos/estadisticas/listadocentralesgeneradoras/Paginas/listadohidroelectricas.aspx,
México,Sinaloa,Raúl J. Marsal (Comedero),Comisión Federal de Electricidad,Comisión Federal de Electricidad,México,San Lorenzo,24.5692049,-106.8118129,Operacional,100,1991,Estatal,https://web.archive.org/web/20110426042638/http://www.cfe.gob.mx/QuienesSomos/estadisticas/listadocentralesgeneradoras/Paginas/listadohidroelectricas.aspx,
México,Nayarit/Jalisco,Alfredo Elías Ayub (La Yesca),Comisión Federal de Electricidad,Comisión Federal de Electricidad,México,Santiago,21.1979549,-104.1102107,Operacional,750,2012,Estatal,https://web.archive.org/web/20110101234309/http://www.cfe.gob.mx/yesca/es/Paginas/Inicio.aspx,
México,Oaxaca,Miguel Alemán (Temascal),Comisión Federal de Electricidad,Comisión Federal de Electricidad,México,Tonto,18.2320051,-96.4141887,Operacional,354,1959,Estatal,https://web.archive.org/web/20110101234309/http://www.cfe.gob.mx/yesca/es/Paginas/Inicio.aspx,
México,Jalisco,Valentín Gómez Farías (Agua Prieta),Comisión Federal de Electricidad,Comisión Federal de Electricidad,México,Santiago,20.7839756,-103.330297,Operacional,240,1993,Estatal,https://web.archive.org/web/20110101234309/http://www.cfe.gob.mx/yesca/es/Paginas/Inicio.aspx,
México,Michoacán,La Villita,Comisión Federal de Electricidad,Comisión Federal de Electricidad,México,Balsas,18.0475051,-102.1821887,Operacional,300,1973,Estatal,https://web.archive.org/web/20110101234309/http://www.cfe.gob.mx/yesca/es/Paginas/Inicio.aspx,
México,Sinaloa,27 de Septiembre (El Fuerte),Comisión Federal de Electricidad,Comisión Federal de Electricidad,México,Fuerte,26.5075389,-108.5753154,Operacional,59,1960,Estatal,https://web.archive.org/web/20110101234309/http://www.cfe.gob.mx/yesca/es/Paginas/Inicio.aspx,
Belice,Cayo,El Mollejón,Belize Electricity Limited,Fortis/Gobierno de Belice,Canadá,Macal,16.9562662,-89.0454084,Operacional,25,1993,Misto,https://www.bel.com.bz/Company_Information.aspx,
Guatemala,Guatemala,Aguacapa,Instituto Nacional de Electrificación,Gobierno de Guatemala,Guatemala,Aguacapa / Agua Tibia,14.2918297,-90.5066665,Operacional,90,1981,Estatal,http://www.inde.gob.gt/blogs/aguacapa-el-proyecto-hidroelectrico-que-dio-luz-y-esperanza-a-los-guatemaltecos/,
Guatemala,Quetzaltenango,El Canadá,"Generadora de Occidente, Limitada",Enel Green Power ,Itália,Samalá,14.6877335,-91.5338606,Operacional,48,2003,Privado,https://www.enelgreenpower.com/countries/central-america/guatemala,
Guatemala,Alta Verapaz,Chixoy,Instituto Nacional de Electrificación,Guatemala government,Guatemala,Chixoy,15.2811269,-90.4933119,Operacional,300,1983,Estatal,http://www.inde.gob.gt/la-ruta-de-la-energia/,
Guatemala,Quetzaltenango,El Recreo,"Hidrotama, S.A.",Grupo Casado,Guatemala,Samalá,14.6506227,-91.5735937,Operacional,26,1998,Privado,https://www.cnee.gob.gt/wp/hidroelectrica-el-recreo/,
Guatemala,Quetzaltenango/Retalhuleu,El Manantial,"Alternativa de Energía Renovable, S.A.",Empresa Eléctrica de Guatemala (Empresas Públicas de Medellín),Guatemala,Ocosito,14.669470,-91.549958,Planejado,52,Indeterminado,Privado,,
Guatemala,El Quiché,Hidro Xacbal,"Hidro Xacbal, S.A.",Terra Inversiones,Honduras,Xacbal,15.6687581,-91.0985312,Operacional,94,2010,Privado,https://terra-inversiones.com/,
Guatemala,El Quiché,Hidro Xacbal Delta,"Energía Limpia de Guatemala, S.A.",Terra Inversiones,Honduras,Xacbal,15.6201644,-91.0902214,Operacional,75,2017,Privado,https://mem.gob.gt/wp-content/uploads/2021/09/1._-Listado-de-Hidroel%C3%A9ctricas-Mayores-a-5-MW-3.pdf,
Guatemala,Escuintla,Jurún Marinalá,Instituto Nacional de Electrificación,Guatemala government,Guatemala,Michatoya,14.388414,-90.7125517,Operacional,60,1970,Estatal,http://www.inde.gob.gt/la-ruta-de-la-energia/,
Guatemala,Alta Verapaz,Oxec,"Oxec, S.A.","Energy Resources Capital, Corp.",Guatemala,Oxec,15.5896682,-89.7318126,Operacional,26,2015,Privado,http://hidroelectricasoxec.com/hidroelectricas/,
Guatemala,Alta Verapaz,Oxec II,"Oxec II, S.A.","Energy Resources Capital, Corp.",Guatemala,Cahabón,15.5599321,-89.7122669,Operacional,60,2018,Privado,http://hidroelectricasoxec.com/hidroelectricas/,
Guatemala,El Quiché,Palo Viejo,"Renovables de Guatemala, S.A.",Enel Green Power,Itália,Cotzal,15.4951187,-90.8627916,Operacional,85,2012,Privado,https://www.enelgreenpower.com/countries/central-america/guatemala,
Guatemala,Alta Verapaz,Renace,"Recusos Naturales y Celulosas (RENACE, S.A.)",Corporación Multiinversiones,Guatemala,Cahabón,15.4981754,-90.1757393,Operacional,66,2004,Privado,https://cmi.co/es/agrupaciones-de-negocio/cmi-capital/energia?view=default,
Guatemala,Alta Verapaz,Renace II,"Recusos Naturales y Celulosas (RENACE, S.A.)",Corporación Multiinversiones,Guatemala,Cahabón,15.5121633,-90.1058088,Operacional,114,2015,Privado,https://cmi.co/es/agrupaciones-de-negocio/cmi-capital/energia?view=default,
Guatemala,Alta Verapaz,Renace III,"Recusos Naturales y Celulosas (RENACE, S.A.)",Corporación Multiinversiones,Guatemala,Cahabón,15.4996642,-90.061606,Operacional,66,2016,Privado,https://cmi.co/es/agrupaciones-de-negocio/cmi-capital/energia?view=default,
Guatemala,Alta Verapaz,Renace IV,"Recusos Naturales y Celulosas (RENACE, S.A.)",Corporación Multiinversiones,Guatemala,Cahabón,15.4987441,-90.0564454,Operacional,55,2019,Privado,https://cmi.co/es/agrupaciones-de-negocio/cmi-capital/energia?view=default,
Guatemala,Guatemala,Río Las Vacas,"Hidroeléctrica Río Las Vacas, S.A.","Hidroeléctrica Río Las Vacas, S.A.",Guatemala,Las Vacas,14.7611176,-90.5052558,Operacional,42,2002,Privado,https://www.hidrovacas.com/,
El Salvador,Chalatenango/Cabañas,Cerrón Grande,Comisión Hidroeléctrica del Río Lempa,El Salvador government,El Salvador,Lempa,13.9413442,-88.9102192,Operacional,135,1976,Estatal,https://www.cel.gob.sv/central-hidroelectrica-cerron-grande/,
El Salvador,San Vicente/Usulután,15 de September,Comisión Hidroeléctrica del Río Lempa,El Salvador government,El Salvador,Lempa,13.6233412,-88.5611711,Operacional,156.6,1983,Estatal,https://www.cel.gob.sv/central-hidroelectrica-15-de-septiembre/,
El Salvador,Chalatenango/Cabañas,5 de November,Comisión Hidroeléctrica del Río Lempa,El Salvador government,El Salvador,Lempa,13.9913052,-88.7642887,Operacional,81,1954,Estatal,https://www.cel.gob.sv/central-hidroelectrica-5-de-noviembre/,
El Salvador,San Miguel,El Chaparral (3 de Febrero),Comisión Hidroeléctrica del Río Lempa,El Salvador government,El Salvador,Torola,13.868351,-88.3576781,Planejado,66,Indeterminado,Estatal,https://ejatlas.org/print/proyecto-hidroelectrico-el-chaparral-el-salvador,
Honduras,Cortés,Cañaveral,Empresa Nacional de Energía Eléctrica,Honduras government,Honduras,Lago de Yojoa,14.9820549,-88.0231074,Operacional,109,1964,Estatal,http://enee.hn/index.php/centrales-hidroelectricas/80-canaveral,
Honduras,Cortés,Francisco Morazán (El Cajón),Empresa Nacional de Energía Eléctrica,Honduras government,Honduras,Comayagua,15.0279052,-87.7475887,Operacional,300,1985,Estatal,http://enee.hn/index.php/centrales-hidroelectricas/81-cajon,
Honduras,Choluteca/Morazán,José Cecilio del Valle,Empresa Nacional de Energía Eléctrica,Honduras government,Honduras,Grande,13.686920 ,-87.359890,Operacional,30,1994,Estatal,https://www.centralamericadata.com/es/article/home/Honduras_concede_represa_a_consorcio_italohondureno,
Honduras,Cortés,El Tornillito,Hidro Volcán,"Inversiones y Representaciones Electromecánicas, S.A. de C.V.",Honduras,Ulúa,15.2247196,-88.0319935,Planejado,200,Indeterminado,Privado,https://www.hidrovolcanhn.com/quienes-somos,
Honduras,Cortés,La Vegona,"Compañía Hondureña de Energía Renovable, S.A.","Inversiones y Representaciones Electromecánicas, S.A. de C.V. ",Honduras,Humuya,15.0868881,-87.7395315,Operacional,38.5,2014,Privado,http://hydrohn.com,
Honduras,Cortés,Río Lindo,Empresa Nacional de Energía Eléctrica,Honduras government,Honduras,Lago de Yojoa,15.040040,-87.983389,Operacional,80,1971,Estatal,http://enee.hn/index.php/centrales-hidroelectricas/80-canaveral,
Honduras,Yoro,Yaguala,"Energías Limpias del Yaguala, S.A. de C.V.","Corporación Industrial del Norte, S.A.",Honduras,Yaguala,15.312719,-86.807142,Planejado,60,Indeterminado,Privado,https://www.elyaguala.hn/,
Nicarágua,León,Carlos Fonseca (Santa Bárbara),Generadora Hidroeléctrica,Empresa Nicaragüense de Electricidad,Nicarágua,Viejo,12.7158052,-86.2819887,Operacional,54,1971,Estatal,https://enel.gob.ni/hidroelectricas/,
Nicarágua,León,Centroamérica,Generadora Hidroeléctrica,Empresa Nicaragüense de Electricidad,Nicarágua,Tuma,13.1068052,-86.0537887,Operacional,50,1962,Estatal,https://enel.gob.ni/hidroelectricas/,
Nicarágua,Chinandega,Tumarín,Centrales Eléctricas de Nicaragua,Empresa Nicaragüense de Electricidad/Distribuidora de Electricidad del Norte,Nicarágua,Grande,13.0003295,-84.3783238,Planejado,253,Indeterminado,Estatal,https://www.enatrel.gob.ni/tumarin-primer-megaproyecto-en-generacion-hidroelectrica/,
Costa Rica,Cartago,Angostura,Instituto Costarricense de Electricidad,Instituto Costarricense de Electricidad,Costa Rica,Reventazón,9.9222211,-83.6444628,Operacional,166,1979,Estatal,https://climapesca.org/2017/05/proyecto-hidroelectrico-angostura/,
Costa Rica,Guanacaste/Alajuela,Arenal,Instituto Costarricense de Electricidad,Instituto Costarricense de Electricidad,Costa Rica,Balsa,10.4460655,-85.0303184,Operacional,180,2000,Estatal,https://grupoice.com/wps/wcm/connect/8823524c-7cc7-4cef-abde-a1f06e14da0e/matriz_folleto_web2.pdf?MOD=AJPERES&CVID=l8SK4gG,
Costa Rica,Cartago,Cachí,Instituto Costarricense de Electricidad,Instituto Costarricense de Electricidad,Costa Rica,Reventazón,9.8696989,-83.7512465,Operacional,159,1966,Estatal,https://www.muniparaiso.go.cr/lugar/12/represa-hidroelectrica-de-cachi,
Costa Rica,Alajuela,Cariblanco,Instituto Costarricense de Electricidad,Instituto Costarricense de Electricidad,Costa Rica,Sarapiquí,10.310581,-84.1832123,Operacional,82,2007,Estatal,https://grupoice.com/wps/wcm/connect/8823524c-7cc7-4cef-abde-a1f06e14da0e/matriz_folleto_web2.pdf?MOD=AJPERES&CVID=l8SK4gG,
Costa Rica,Guanacaste,Corobicí (Miguel Dengo),Instituto Costarricense de Electricidad,Instituto Costarricense de Electricidad,Costa Rica,Arenal,10.4695053,-85.0806774,Operacional,174,1982,Estatal,https://grupoice.com/wps/wcm/connect/8823524c-7cc7-4cef-abde-a1f06e14da0e/matriz_folleto_web2.pdf?MOD=AJPERES&CVID=l8SK4gG,
Costa Rica,Alajuela,La Garita,Instituto Costarricense de Electricidad,Instituto Costarricense de Electricidad,Costa Rica,Grande de Tarcoles,9.9342386,-84.3604953,Operacional,40,1958,Estatal,https://grupoice.com/wps/wcm/connect/8823524c-7cc7-4cef-abde-a1f06e14da0e/matriz_folleto_web2.pdf?MOD=AJPERES&CVID=l8SK4gG,
Costa Rica,Alajuela,Peñas Blancas,Instituto Costarricense de Electricidad,Instituto Costarricense de Electricidad,Costa Rica,Peñas Blancas,10.3846053,-84.5815887,Operacional,36,2002,Estatal,https://www.larepublica.net/noticia/hidroelectrica-penas-blancas-pasa-a-formar-parte-del-ice,
Costa Rica,San José,Pirrís,Instituto Costarricense de Electricidad,Instituto Costarricense de Electricidad,Costa Rica,Pirrís,9.6313053,-84.1989887,Operacional,140,2011,Estatal,http://www.betonmac.com/index.php/obras/36-costa-rica/105-ph-pirris,
Costa Rica,Cartago,Río Macho,Instituto Costarricense de Electricidad,Instituto Costarricense de Electricidad,Costa Rica,Reventazón,9.7739053,-83.8435887,Operacional,140,1963,Estatal,https://blogs.iadb.org/efectividad-desarrollo/es/rio-macho-fuente-de-vida-electricidad-y-empleo/,
Costa Rica,Guanacaste,Sandillal,Instituto Costarricense de Electricidad,Instituto Costarricense de Electricidad,Costa Rica,Arenal / Santa Rosa,10.46449,-85.10350,Operacional,31,1992,Estatal,http://globalenergyobservatory.org/geoid/5262,
Costa Rica,Alajuela,Toro I,Instituto Costarricense de Electricidad,Instituto Costarricense de Electricidad,Costa Rica,Toro,10.2617653,-84.2673387,Operacional,25,1995,Estatal,,
Costa Rica,Alajuela,Toro II,Instituto Costarricense de Electricidad,Instituto Costarricense de Electricidad,Costa Rica,Toro,10.2759782,-84.2630947,Operacional,66,1996,Estatal,http://globalenergyobservatory.org/geoid/5750,
Costa Rica,Alajuela,Toro III,Instituto Costarricense de Electricidad,Instituto Costarricense de Electricidad,Costa Rica,Toro,10.3047546,-84.247216,Operacional,48,2013,Estatal,https://www.nacion.com/economia/ice-inauguro-planta-hidroelectrica-toro-3/YTG22CVW5VD2DO3LLUXXVB2YVE/story/,
Costa Rica,Limón,Reventazón,Instituto Costarricense de Electricidad,Instituto Costarricense de Electricidad,Costa Rica,Reventazón,10.0837799,-83.5636953,Operacional,306,2016,Estatal,https://www.hydrosustainability.org/published-assessments/reventazon,
Costa Rica,Alajuela,Ventanas-Garita,Instituto Costarricense de Electricidad,Instituto Costarricense de Electricidad,Costa Rica,Virilla / Ciruelas,9.934313,-84.359359,Operacional,100,1987,Estatal,https://www.plncr.org/plantas-hidroelectricas,
Costa Rica,Alajuela,Balsa Inferior,Compañía Nacional de Fuerza y Luz,Instituto Costarricense de Electricidad,Costa Rica,Balsa,10.3023402,-84.5257841,Operacional,38,2014,Estatal,https://www.cnfl.go.cr/contenido/documentos/transparencia/informacion-institucional/quienes-somos.pdf,
Costa Rica,San José,Brasil,Compañía Nacional de Fuerza y Luz,Instituto Costarricense de Electricidad,Costa Rica,Virilla,9.9405912,-84.2370158,Operacional,27,1998,Estatal,https://www.cnfl.go.cr/contenido/documentos/transparencia/informacion-institucional/quienes-somos.pdf,
Costa Rica,Alajuela,Los Negros II,Empresa de Servicios Públicos de Heredia,Municipios de la provincia de Heredia,Costa Rica,Negros / Jalapiedras,10.8845053,-85.1886587,Operacional,28,2019,Estatal,https://www.esph-sa.com/node/141,
Costa Rica,Alajuela,Chocosuela,Cooperativa de Electrificación Rural de San Carlos (Coopelesca),Socios cooperativistas,Costa Rica,La Vieja,10.326667,-84.484353,Operacional,27,2000,Privado,https://www.coopelesca.com/electricidad/#content,
Costa Rica,Alajuela,Sigifredo Solís Solís,Consorcio Nacional de Empresas de Electrificación de Costa Rica R.L.,"COOPESANTOS R.L, COOPELESCA R.L, COOPEALFARORUIZ R.L y COOPEGUANACASTE R.L,",Costa Rica,Peñas Blancas,10.3650656,-84.6318712,Operacional,28,2010,Privado,https://www.coopesantos.com/servicios/generacion-de-energia/,
Costa Rica,Alajuela,Chucás,Instituto Costarricense de Electricidad,Instituto Costarricense de Electricidad,Costa Rica,Tárcoles,9.9232618,-84.4010067,Operacional,50,2016,Estatal,https://www.carboncr.com/proyectos/costa-rica/chucas,
Costa Rica,Alajuela,Capulín San Pablo,Instituto Costarricense de Electricidad,Instituto Costarricense de Electricidad,Costa Rica,Tárcoles,9.9221466,-84.4469399,Planejado,50,Indeterminado,Estatal,http://geotec.cr/proyectos/capulin-2/,
Costa Rica,Cartago,La Joya,Instituto Costarricense de Electricidad,Instituto Costarricense de Electricidad,Costa Rica,Reventazón,9.8540504,-83.6877379,Operacional,50,2006,Estatal,https://www.carboncr.com/proyectos/costa-rica/la-joya,
Panamá,Panamá,Bayano,AES Panamá,AES Corporation,Estados Unidos,Bayano,9.1747273,-78.8866327,Operacional,260,1976,Privado,https://www.aespanama.com/es/nuestra-historia,
Panamá,Chiriquí,Baitún,Ideal Panamá (Impulsora del Desarrollo y el Empleo en América Latina),Carso Energy (Grupo Carso),México,Chiriquí Viejo,8.614432,-82.793262,Operacional,87,2012,Privado,https://www.hidromet.com.pa/es/cuencas-hidro-energeticas,
Panamá,Chiriquí,Bajo Mina,Ideal Panamá (Impulsora del Desarrollo y el Empleo en América Latina),Carso Energy (Grupo Carso),México,Chiriquí Viejo,8.7163856,-82.8330046,Operacional,57,2014,Privado,https://www.hidromet.com.pa/es/cuencas-hidro-energeticas,
Panamá,Bocas del Toro,Changuinola I,"AES Changuinola, S.A.",AES Corporation,Estados Unidos,Changuinola,9.2366352,-82.4969916,Operacional,221,2011,Privado,https://www.aespanama.com/es/nuestra-historia,
Panamá,Chiriquí,El Alto,"Hydro Caisán, S.A.","Panamá Power Holdings, Inc.",Panamá,Chiriquí Viejo,8.7614273,-82.8388077,Operacional,72,2015,Privado,https://www.panamapower.net/proyectos/central-hidroelectrica-el-alto/,
Panamá,Chiriquí,Estí,AES Panamá,AES Corporation,Estados Unidos,Chiriquí,8.5431153,-82.3000487,Operacional,120,2003,Privado,https://www.aespanama.com/es/nuestra-historia,
Panamá,Chiriquí,Fortuna (Edwin Fábrega),Enel Green Power Panamá,Enel Green Power,Itália,Chiriquí,8.6790677,-82.2648035,Operacional,300,1984,Privado,https://www.enelgreenpower.com/countries/central-america/panama,
Panamá,Chiriquí,Gualaca,Celsia,Grupo Argos,Colômbia,Estí,8.5339305,-82.2963038,Operacional,25,2012,Privado,https://www.celsia.com/es/quienes-somos/centrales-hidroelectricas/,
Panamá,Chiriquí,La Estrella,AES Panamá,AES Corporation,Estados Unidos,Caldera,8.7166772,-82.3667443,Operacional,47,1979,Privado,https://www.aespanama.com/es/global-x-local,
Panamá,Chiriquí,Los Valles,AES Panamá,AES Corporation,Estados Unidos,Los Valles,8.6778479,-82.348111,Operacional,54,1979,Privado,https://www.aespanama.com/es/global-x-local,
Panamá,Chiriquí,Lorena,Celsia,Grupo Argos,Colômbia,Chiriquí,8.4549242,-82.3378136,Operacional,33,2012,Privado,https://www.celsia.com/es/quienes-somos/centrales-hidroelectricas/,
Panamá,Panamá,Madden,Autoridad del Canal de Panamá,Panamá government,Panamá,Chagres,9.2100756,-79.6193844,Operacional,36,1935,Estatal,https://www.prensa.com/impresa/economia/misiones-Madden_0_4773272710.html,
Panamá,Chiriquí,Monte Lirio,Electron Investment S.A. (EISA),InverAvante/Grupo Eleta,Panamá,Chiriquí Viejo,8.7614273,-82.8388077,Operacional,52,2014,Privado,https://www.eisa.com.pa/monte_lirio.html,
Panamá,Chiriquí,Pando,Electron Investment S.A. (EISA),InverAvante/Grupo Eleta,Panamá,Chiriquí Viejo,8.7897091,-82.7410162,Planejado,33,Indeterminado,Privado,https://www.eisa.com.pa/monte_lirio.html,
Panamá,Chiriquí,Prudencia,Celsia,Grupo Argos,Colombia,Chiriquí,8.4238553,-82.3461187,Operacional,60,2011,Privado,https://www.celsia.com/es/quienes-somos/centrales-hidroelectricas/,
Panamá,Chiriquí,Bajo Frío,Fountain Hydro Power Group,Agua Imara/Credicorp Group,Panamá / Noruega,Chiriquí Viejo,8.5944663,-82.787262,Operacional,58,2015,Privado,https://fountain.com.pa/quienes_somos/,
Panamá,Chiriquí,Barro Blanco,"Generadora del Istmo, S.A.",Grupo Luz y Fuerza,Honduras,Tabasará,8.2151538,-81.5962423,Operacional,28,2017,Privado,http://genisa.com.pa/central-hidroelectrica/,
Panamá,Bocas del Toro,Bonyic,Empresas Públicas de Medellín,Municipio de Medellín,Colômbia,Quebrada Bonyic,9.321778,-82.647554,Operacional,31.8,2015,Estatal,https://www.grupo-epm.com/site/home/sala-de-prensa/noticias/central-hidroelectrica-bonyic,
Cuba,Cienfuegos,Hanabanilla,Unión Eléctrica,Cuban government,Cuba,Hanabanilla,22.0933017,-80.0615024,Operacional,43,1963,Estatal,https://www.minem.gob.cu/es/actividades/energias-renovables-y-eficiencia-energetica/hidroenergia,
Haití,Centro,Péligre,Electricité d’Haiti,Haiti government,Haití,Artibonite,18.900846,-72.0538845,Operacional,51,1971,Estatal,https://www.edh.ht/centrales-hydro.php,
República Dominicana,Peravia,Aguacate,Empresa de Generación Eléctrica Dominicana,Corporación Dominicana de Empresas Eléctricas Estatales,República Dominicana,Nizao,18.4959348,-70.3210558,Operacional,60,1992,Estatal,https://egehid.gob.do/sobre-nosotros/historia/,
República Dominicana,Peravia,Jigüey,Empresa de Generación Eléctrica Dominicana,Corporación Dominicana de Empresas Eléctricas Estatales,República Dominicana,Nizao,18.5101574,-70.3332026,Operacional,98,1992,Estatal,https://egehid.gob.do/sobre-nosotros/historia/,
República Dominicana,Monseñor Nouel,Pinalito,Empresa de Generación Eléctrica Dominicana,Corporación Dominicana de Empresas Eléctricas Estatales,República Dominicana,Tireo,18.8841402,-70.5679827,Operacional,50,2009,Estatal,https://grupoiecca.net/2019/11/02/proyecto-hidroelectrico-pinalito/,
República Dominicana,Monseñor Nouel,Río Blanco,Empresa de Generación Eléctrica Dominicana,Corporación Dominicana de Empresas Eléctricas Estatales,República Dominicana,Blanco / Tireo / Arroyón,18.8808928,-70.4985144,Operacional,25,1996,Estatal,https://egehid.gob.do/sobre-nosotros/historia/,
República Dominicana,Santiago de los Caballeros,Tavera,Empresa de Generación Eléctrica Dominicana,Corporación Dominicana de Empresas Eléctricas Estatales,República Dominicana,Yaque del Norte,19.3250054,-70.7389897,Operacional,96,1973,Estatal,https://egehid.gob.do/sobre-nosotros/historia/,
República Dominicana,Peravia,Valdesia,Empresa de Generación Eléctrica Dominicana,Corporación Dominicana de Empresas Eléctricas Estatales,República Dominicana,Nizao,18.3917022,-70.2827645,Operacional,54,1975,Estatal,https://egehid.gob.do/sobre-nosotros/historia/,
República Dominicana,Santiago de los Caballeros,Las Placetas,Empresa de Generación Eléctrica Dominicana,Corporación Dominicana de Empresas Eléctricas Estatales,República Dominicana,Bao,19.217368,-70.896187,Planejado,300,Indeterminado,Estatal,https://grupoiecca.net/en/2020/01/27/las-placetas-hydroelectric/,
,,,,,,,,,,,,,,
Brasil,Pará,Belo Monte,Norte Energia S.A.,"Eletrobras group (49,98%), Entidades de Previdência Complementar (20%), Neoenergia (10%), Vale e Sinobras (10%), Light e Cemig (9,77%), JMalucelli Energina (0,25%)",Brasil,Xingu,-3.12638900,-51.77500000,Operacional,11233,2016,Misto,https://www.norteenergiasa.com.br/pt-br/uhe-belo-monte/a-usina   https://www.norteenergiasa.com.br/pt-br/norte-energia/composicao-acionaria ,
Brasil ,Pará,Tucuruí,Centrais Elétricas do Norte do Brasil S.A.,Eletrobras Eletronorte,Brasil,Tocantins,-3.83159761,-49.64312078,Operacional,8535,1984,Estatal,https://www.eletronorte.gov.br/tucurui/,
Brasil,Paraná,Itaipu (Brazilian part),Itaipu Binacional,"Eletrobras (50%), ANDE (50%)",Brasil / Paraguai,Paraná,-25.40831282,-54.58741668,Operacional,7000,1984,Estatal,https://www.itaipu.gov.br/en/press-office/faq,
Brasil,Rondônia,Jirau,Energia Sustentável do Brasil S.A.,"Engie (40%), Eletrobras CGT Eletrosul (20%), Eletrobras Chesf (20%) e Mizha Participações S.A. (20%), subsidiária da Mitsui & CO., LTD.",França,Madeira,-9.26750812,-64.64614265,Operacional,3750,2013,Misto,https://www.jirauenergia.com.br/conheca-a-uhe/,
Brasil,Rondônia,"Santo Antônio",Santo Antônio Energia S.A.,"Consórcio Madeira Energia S/A: Eletrobras Furnas (39%), Caixa FIP Amazônia Energia (20%), Odebretch Energia do Brasil S.A. (18,6%), SAAG Investimentos S.A. (12,4%), Cemig Geração e Transmissão S.A. (10%)",Brasil,Madeira,-8.79668531,-63.95218496,Operacional,3568,2012,Misto,https://www.furnas.com.br/santoantonio/?culture=pt,
Brasil,São Paulo,Ilha Solteira,Rio Paraná Energia S.A.,CTG Brasil,China,Paraná,-20.38222200,-51.36361100,Operacional,3444,1973,Privado,https://www.ctgbr.com.br/usina-hidreletrica-ilhasolteira/,
Brasil,Sergipe,Xingó,Companhia Hidro Elétrica do São Francisco,Eletrobras Chesf,Brasil,San Francisco,-9.61958018,-37.79255980,Operacional,3162,1994,Estatal,https://www.chesf.gov.br/SistemaChesf/Pages/SistemaGeracao/Xingo.aspx,
Brasil,Bahia,Paulo Afonso IV,Companhia Hidro Elétrica do São Francisco,Eletrobras Chesf,Brasil,San Francisco,-9.41564531,-38.20767127,Operacional,2462,1979,Estatal,https://www.chesf.gov.br/SistemaChesf/Pages/SistemaGeracao/PauloAfonsoIV.aspx,
Brasil,Minas Gerais,Itumbiara,Furnas Centrais Elétricas S.A.,Eletrobras Furnas,Brasil,Paranaíba,-18.42361111,-49.11833333,Operacional,2082,1980,Estatal,https://www.furnas.com.br/subsecao/121/usina-de-itumbiara---2082-mw?culture=pt,
Brasil,Mato Grosso,Teles Pires,Companhia Hidrelétrica Teles Pires,"Neoenergia (51%), Eletrobras CGT Eletrosul (24,5%) e Eletrobras Furnas (24,5%)",Espanha,Teles Pires,-9.35150944,-56.77799361,Operacional,1819,2015,Misto,https://www.furnas.com.br/telespires/?culture=pt,
Brasil,Minas Gerais,São Simão,UHE São Simão Energia S.A.,"SPIC Brasil (51,0%), Zhejiang Energy Brazil (35,0%), ZLCFB – Hong Kong (7,0%), CPD Energy Investment (7,0%)",China,Paranaíba,-19.01833333,-50.49861111,Operacional,1710,1978,Privado,https://www.spicbrasil.com.br/,
Brasil,Paraná,Governador Bento Munhoz da Rocha Neto (Foz do Areia),F.D.A. Geração de Energia Elétrica S.A.,Copel,Brasil,Iguaçu,-26.00977231,-51.66597303,Operacional,1676,1980,Estatal,https://www.copel.com/site/copel-geracao/usinas/usina-governador-bento-munhoz-da-rocha-netto/,
Brasil,São Paulo,Jupiá (Eng° Souza Dias),Rio Paraná Energia S.A.,CTG Brasil,China,Paraná,-20.77583300,-51.62666700,Operacional,1551,1969,Privado,https://www.ctgbr.com.br/usina-hidreletrica-jupia/,
Brasil,Mato Grosso do Sul,Porto Primavera (Eng° Sérgio Motta),Auren Energia S.A.,"Votorantim (37,74%), CPP Investments (32,06%), ações em free float (30,20%)",Brasil,Paraná,-22.47567361,-52.95868500,Operacional,1540,1999,Privado,https://jornaldiadia.com.br/cesp-agora-e-auren-energia/,
Brasil,Bahia,Luiz Gonzaga (Itaparica),Companhia Hidro Elétrica do São Francisco,Eletrobras Chesf,Brasil,San Francisco,-9.14352303,-38.31240468,Operacional,1479,1988,Estatal,https://www.chesf.gov.br/SistemaChesf/Pages/SistemaGeracao/LuizGonzaga.aspx,
Brasil,Rio Grande do Sul,Itá,"Itá Energética S/A, Engie Brasil Energia S.A","Consórcio Itá: Engie Brasil Energia (77,7%), Cia Siderúrgica Nacional - CSN, Companhia de Cimento Itambé",França,Uruguai,-27.27671111,-52.38216111,Operacional,1450,2000,Privado,https://www.engie.com.br/usinas/usina-hidreletrica-ita/,
Brasil,Minas Gerais,Marimbondo,Furnas Centrais Elétricas S/A.,Eletrobras Furnas,Brasil,Grande,-20.30295508,-49.19767827,Operacional,1440,1975,Estatal,https://www.furnas.com.br/subsecao/125/usina-de-marimbondo---1440-mw?culture=pt,
Brasil,Paraná,Salto Santiago,Engie Brasil Energia S.A.,Engie,França,Iguaçu,-25.62876331,-52.61452548,Operacional,1420,1980,Privado,https://www.engie.com.br/en/generation-complex/power-plant/salto-santiago-hydroelectric-power-plant/,
Brasil,São Paulo,Água Vermelha (Antiga José Ermírio de Moraes),AES Brasil Operações S.A.,AES ,Estados Unidos,Grande,-19.86315702,-50.34647804,Operacional,1396,1978,Privado,http://www.geografia.seed.pr.gov.br/modules/galeria/detalhe.php?foto=1253&evento=3,
Brasil,Goiás,Serra da Mesa,Furnas Centrais Elétricas S/A.,"CPFL (51%), Eletrobras Furnas (49%)",China,Tocantins,-13.83386362,-48.30485761,Operacional,1275,1998,Misto,https://www.furnas.com.br/serradamesa/?culture=pt,
Brasil,Paraná,Governador Ney Aminthas de Barros Braga (Segredo),Copel Geração e Transmissão S.A.,Copel,Brasil,Iguaçu,-25.79045354,-52.11231046,Operacional,1260,1992,Estatal,https://www.copel.com/site/copel-geracao/usinas/usina-ney-braga/,
Brasil,Paraná,Governador José Richa (Salto Caxias),Copel Geração e Transmissão S.A.,Copel,Brasil,Iguaçu,-25.54305498,-53.49805503,Operacional,1240,1999,Estatal,https://www.copel.com/site/copel-geracao/usinas/usina-jose-richa/,
Brasil,Minas Gerais,Furnas,Furnas Centrais Elétricas S.A.,Eletrobras Furnas,Brasil,Grande,-20.66920345,-46.31825382,Operacional,1216,1963,Estatal,https://www.furnas.com.br/furnas/?culture=pt,
Brasil,Goiás,Emborcação,CEMIG Geração e Transmissão S.A.,Cemig,Brasil,Paranaíba,-18.45234934,-47.98477771,Operacional,1192,1982,Estatal,https://www.cemig.com.br/usina/uhe-emborcacao/,
Brasil,Rio Grande do Sul,Machadinho,"Companhia Estadual de Geração de Energia Elétrica, Engie Brasil Energia S.A., Alcoa Alumínio S.A., Machadinho Participações S.A., DME Distribuição S.A., Vale S.A., Votorantim Cimentos Machadinho Energia Ltda., CBA Machadinho Geração de Energia","Consórcio Machadinho: cba (27,5232%), Alcoa (25,7431%), Engie (19,2745%), Vale (8,2927%), Votorantim (5,6176%), CEE Geração (5,5301%), InterCement (5,2762%), DME Distribuição (2,7326%)",Brasil,Uruguai,-27.52706416,-51.78968313,Operacional,1140,2002,Misto,https://www.engie.com.br/usinas/usina-hidreletrica-machadinho/,
Brasil,Tocantins,Estreito,"Companhia Energética Estretio S.A., Estreito Energia S.A., InterCement Brasil S.A., Vale S.A.","Consórcio Estreito Energia – CESTE: Engie (40,07%), Vale (30%), Alcoa (25,49%) e InterCement (4,44%)",França,Tocantins,-6.58909741,-47.46648003,Operacional,1087,2011,Privado,https://www.engie.com.br/usinas/usina-hidreletrica-estreito/,https://www.uhe-estreito.com.br/institucional/quem-somos.html
Brasil,Paraná,Salto Osório,Tractebel Energia S/A,Engie,França,Iguaçu,-25.53756844,-53.00896732,Operacional,1078,1975,Privado,https://www.engie.com.br/usinas/usina-hidreletrica-salto-osorio/,
Brasil,Bahia,Sobradinho,Companhia Hidro Elétrica do São Francisco,Eletrobras Chesf,Brasil,San Francisco,-9.43023841,-40.82719916,Operacional,1050,1982,Estatal,https://www.chesf.gov.br/SistemaChesf/Pages/SistemaGeracao/Sobradinho.aspx,
Brasil,São Paulo,Estreito (Luiz Carlos Barreto de Carvalho),Furnas Centrais Elétricas S.A.,Eletrobras Furnas,Brasil,Grande,-20.15085840,-47.27979292,Operacional,1050,1969,Estatal,https://www.furnas.com.br/lcbc/?culture=pt,
Brasil,Tocantins,Luís Eduardo Magalhães (Lajeado),"CEB Lajeado S.A, Investco S.A., Lajeado Energia S.A., Paulista Lajeado Energia S.A.","EDP, CPFL (4,15%)",Portugal,Tocantins,-9.75735525,-48.37196007,Operacional,902,2001,Privado,https://brasil.edp.com/en/what-we-do/generation/uhe-lajeado,https://www.grupocpfl.com.br/unidades-de-negocios/cpfl-geracao
Brasil,São Paulo,Henry Borden,Empresa Metropolitana de Águas e Energia S/A.,Emae,Brasil,Pedras,-23.86191495,-46.46208827,Operacional,889,1926,Estatal,http://emae.com.br/usina-hidroeletrica-henry-borden/,
Brasil,Santa Catarina,Campos Novos,Campos Novos Energia S.A.,"CPFL (48,7%), Votorantim Energia (44,7%), CEEE GT (6,5%)",China,Canoas,-27.60411890,-51.32711724,Operacional,880,2007,Misto,https://www.enercan.com.br/,
Brasil,Santa Catarina,Foz do Chapecó,Foz do Chapecó Energia S/A,"CPFL (51%), Eletrobras Furnas (40%) e CEEE-GT (9%)",China,Uruguai,-27.14000000,-53.04333333,Operacional,855,2010,Misto,http://www.fozdochapeco.com.br/empresa/,https://www.furnas.com.br/fozdochapeco/?culture=pt
Brasil,São Paulo,Três Irmãos,Tijoa Participações e Investimentos S.A.,"Eletrobras Furnas (49,9%), Triunfo Participações e Investimentos (50,1%)",Brasil,Tietê,-20.66867696,-51.29977116,Operacional,807,1993,Misto,https://www.furnas.com.br/tresirmaos/?culture=pt,
Brasil,Bahia,Paulo Afonso III,Companhia Hidro Elétrica do São Francisco,Eletrobras Chesf,Brasil,San Francisco,-9.39605031,-38.20193731,Operacional,794,1971,Estatal,https://www.chesf.gov.br/SistemaChesf/Pages/SistemaGeracao/PauloAfonsoIII.aspx,
Brasil,Mato Grosso,São Manoel,Empresa de Energia São Manoel S.A.,"EDP Brasil S.A. (33,334%), Furnas Centrais Elétricas e (33,333%) e China Three Gorges Corporation - CTG (33,333%)",Portugal / Brasil / China,Teles Pires,-9.19027541,-57.05222718,Operacional,700,2017,Mixto,https://www.furnas.com.br/saomanoel/?culture=pt,
Brasil,Rio Grande do Sul,Barra Grande,Energética Barra Grande S.A.,"Alcoa Alumínio (42,2%), CPFL (25%), Votorantim Energia (15%), Intercement (9%), DME Energética (8,8%)",Estados Unidos,Pelotas,-27.78026185,-51.19189954,Operacional,690,2005,Privado,https://www.baesa.com.br/,
Brasil,Minas Gerais,Cachoeira Dourada,ENEL GREEN POWER Cachoeira Dourada S.A.,Enel Green Power,Itália,Paranaíba,-18.50432743,-49.49021968,Operacional,658,1959,Privado,https://www.enel.com.br/pt/investidores/EGPCachoeiraDourada/InformacoesGerais0.html,
Brasil,Paraná,Capivara (Escola de Engenharia Mackenzie),"Rio Paranapanema Energia S.A.",CTG Brasil,China,Paranapanema,-22.65468656,-51.35708795,Operacional,643,1977,Privado,https://www.ctgbr.com.br/portfolio-item/energia-hidreletrica/,
Brasil,São Paulo,Taquaruçu (Escola Politécnica),Rio Paranapanema Energia S.A.,CTG Brasil,China,Paranapanema,-22.54366911,-52.00024984,Operacional,525,1992,Privado,https://www.ctgbr.com.br/portfolio-item/energia-hidreletrica/,
Brasil,Minas Gerais,Nova Ponte,CEMIG Geração e Transmissão S/A,Cemig,Brasil,Araguari,-19.12958199,-47.69696604,Operacional,510,1994,Estatal,https://www.cemig.com.br/usina/uhe-nova-ponte/,
Brasil,Rio Grande do Sul,Itaúba,Companhia Estadual de Geração e Transmissão de Energia Elétrica (CEEE GT),CEEE GT,Brasil,Jacuí,-29.26071944,-53.23588333,Operacional,500,1978,Estatal,https://www.ceee.com.br/a-ceee/usinas-e-pchs,
Brasil,Tocantins,Peixe Angical,Enerpeixe S/A,"Energias do Brasil, do grupo EDP (60%), Eletrobras Furnas (40%)",Portugal,Tocantins,-12.23546655,-48.38636694,Operacional,498,2006,Misto,https://www.furnas.com.br/peixeangical/?culture=pt,
Brasil,Minas Gerais,Marechal Mascarenhas de Moraes (Antiga Peixoto),Furnas Centrais Elétricas S.A.,Eletrobras,Brasil,Grande,-20.28626109,-47.06438589,Operacional,476,1957,Estatal,https://www.furnas.com.br/mascarenhas/?culture=pt,
Brasil,Bahia,Itapebi,Itapebi Geração de Energia S/A,Neoenergia,Espanha,Jequitinhonha,-15.96564305,-39.59263939,Operacional,462,2003,Privado,https://www.neoenergia.com/pt-br/sobre-nos/linhas-de-negocios/renovaveis/renovaveis-hidrica/Paginas/itapebi.aspx,
Brasil,Goiás,Cana Brava,Engie Brasil Energia S.A.,Engie,França,Maranhão ou Tocantins,-13.40238714,-48.14332931,Operacional,450,2002,Privado,https://www.engie.com.br/usinas/uhe-cana-brava/,
Brasil,Bahia,Paulo Afonso II,Companhia Hidro Elétrica do São Francisco,Eletrobras Chesf,Brasil,San Francisco,-9.39688312,-38.20266305,Operacional,443,1961,Estatal,https://www.chesf.gov.br/SistemaChesf/Pages/SistemaGeracao/PauloAfonsoII.aspx,
Brasil,São Paulo,Jaguara,Companhia Energética Jaguara,Engie ,França,Grande,-20.02273195,-47.43389241,Operacional,424,1971,Privado,https://www.engie.com.br/usinas/usina-hidreletrica-jaguara/,
Brasil,São Paulo,Chavantes,Rio Paranapanema Energia S.A.,CTG Brasil,China,Paranapanema,-23.12795665,-49.73295944,Operacional,414,1970,Privado,https://www.ctgbr.com.br/portfolio-item/energia-hidreletrica/,
Brasil,Minas Gerais,Miranda,Companhia Energética Miranda,Engie ,França,Araguari,-18.91040777,-48.04090734,Operacional,408,1998,Privado,https://www.engie.com.br/en/generation-complex/power-plant/miranda-hydroelectric-power-plant/,
Brasil,Mato Grosso,Sinop,Companhia Energética Sinop S.A.,"EDF Norte Fluminense (51%), Eletrobras Eletronorte (24,5%) e Eletrobras Chesf (24,5%)",França,Teles Pires,-11.26666667,-55.45000000,Operacional,401,2019,Misto,https://www.sinopenergia.com.br/sobre-a-uhe-sinop,
Brasil,Alagoas,Apolônio Sales (Antiga Moxotó),Companhia Hidro Elétrica do São Francisco,Eletrobras Chesf,Brasil,San Francisco,-9.35811016,-38.20849092,Operacional,400,1977,Estatal,https://www.chesf.gov.br/SistemaChesf/Pages/SistemaGeracao/ApolonioSales.aspx,
Brasil,Minas Gerais,Irapé,CEMIG Geração e Transmissão S/A,Cemig,Brasil,Jequitinhonha,-16.73805556,-42.57472222,Operacional,399,2006,Estatal,https://www.cemig.com.br/usina/uhe-irape/,
Brasil,Minas Gerais,Três Marias,CEMIG Geração Três Marias S.A.,Cemig,Brasil,San Francisco,-18.21500000,-45.25916666,Operacional,396,1962,Estatal,https://www.cemig.com.br/usina/tres-marias/,
Brasil,Amapá,Santo Antônio do Jari,ECE Participações S.A.,"CTG (50%), EDP (50%)",China / Portugal,Jari,-0.65000000,-52.51666667,Operacional,392,2014,Privado,https://brasil.edp.com/en/uhe-jari,
Brasil,Rio de Janeiro,Nilo Peçanha,Light Energia S.A.,Light,Brasil,Piraí,-22.68330445,-43.87327510,Operacional,380,1953,Misto,http://www.light.com.br/grupo-light/Empresas-do-Grupo/light-energia.aspx,
Brasil,Minas Gerais,Volta Grande,ENEL Green Power Projetos I S.A.,Enel Green Power,Itália,Grande,-20.03326721,-48.22184427,Operacional,380,1974,Privado,https://br.lexlatin.com/noticias/enel-paga-dividas-da-usina-hidreletrica-de-volta-grande,
Brasil,Goiás,Corumbá I,Furnas Centrais Elétricas S.A.,Eletrobras Furnas,Brasil,Corumbá,-17.98786025,-48.53231848,Operacional,375,1996,Estatal,https://www.furnas.com.br/corumba/?culture=pt,
Brasil,Paraná,Governador Jayme Canet Júnior (Antiga Mauá),"Copel Geração e Transmissão S.A., Companhia de Geração e Transmissão de Energia Elétrica do Sul do Brasil - Eletrobras CGT Eletrosul","Copel (51%), Eletrobras CGT Eletrosul (49%)",Brasil,Tibagi,-24.06211584,-50.70715699,Operacional,361,2012,Misto,http://www.usinamaua.com.br/a-usina,
Brasil,Paraná,Rosana,"Duke Energy International, Geração Paranapanema S.A.",CTG Brasil,China,Paranapanema,-22.60000000,-52.86944400,Operacional,354,1987,Privado,https://www.ctgbr.com.br/portfolio-item/energia-hidreletrica/,
Brasil,Paraná,Baixo Iguaçu,"Geração Céu Azul S.A., Copel Geração e Transmissão S.A","Neoenergia (70%), Copel (30%)",Espanha,Iguaçu,-25.50333000,-53.67166600,Operacional,350,2019,Misto,https://www.neoenergia.com/pt-br/sobre-nos/linhas-de-negocios/renovaveis/renovaveis-hidrica/baixo-iguacu/Paginas/default.aspx,
Brasil,São Paulo,Nova Avanhandava (Rui Barbosa),AES Tietê S.A.,AES ,Estados Unidos,Tietê,-21.11888900,-50.20111100,Operacional,347,1982,Privado,http://www.turismoburitama.com.br/site/usina-hidreletrica-nova-avanhandava/,
Brasil,Minas Gerais,Simplício,Furnas Centrais Elétricas S.A.,Eletrobras Furnas,Brasil,Paraíba do Sul,-21.92074371,-42.79314838,Operacional,333,2013,Estatal,https://www.furnas.com.br/simplicioanta/?culture=pt,
Brasil,Minas Gerais,Aimorés,Aliança Geração de Energia S.A.,"Vale (55%), Cemig (45%)",Brasil,Doce,-19.45714111,-41.09797972,Operacional,330,2006,Misto,https://aliancaenergia.com.br/br/uhe-de-aimores/,
Brasil,São Paulo,Porto Colômbia,Furnas Centrais Elétricas S.A.,Eletrobras Furnas,Brasil,Grande,-20.12416700,-48.57194400,Operacional,320,1973,Estatal,https://www.furnas.com.br/portocolombia/?culture=pt,
Brasil,Mato Grosso,Colíder,Copel Geração e Transmissão S.A.,Copel,Brasil,Teles Pires,-10.98480528,-55.76600500,Operacional,300,2019,Estatal,https://www.copel.com/uhecolider/noticia.jsp?not=%2Fuhecolider%2Fpagcopel2.nsf%2Fdocs%2F671A14FF9D94DBF5032578B00068993A,
Brasil,São Paulo,Promissão (Mário Lopes Leão),AES Tietê S.A.,AES ,Estados Unidos,Tietê,-21.29611100,-49.78305600,Operacional,264,1975,Privado,https://dadosenergeticos.energia.sp.gov.br//portalcev2/intranet/eletricidade/geracao/DetalhesUsinas.asp?concessionaria=3&usina=8&mes=6&ano=2017&nome=AES%20TIET%C3%8A%20S/A&nome2=M%C3%81RIO%20LOPES%20LE%C3%83O%20(PROMISS%C3%83O)&reduzido=AES,
Brasil,Mato Grosso,Dardanelos,Energética Águas da Pedra S.A.,"Neoenergia (51%), Eletrobras Eletronorte (24,5%), Eletrobras Chesf (24,5%)",Espanha,Aripuanã,-10.16333333,-59.46416667,Operacional,261,2011,Misto,https://www.neoenergia.com/pt-br/sobre-nos/linhas-de-negocios/renovaveis/renovaveis-hidrica/Paginas/dardanelos.aspx,
Brasil,Paraná,Governador Pedro Viriato Parigot de Souza (Capivari/Cachoeira),Copel Geração e Transmissão S.A.,Copel,Brasil,Capivari,-25.13833333,-48.87444444,Operacional,260,1971,Estatal,https://www.copel.com/site/copel-geracao/usinas/usina-parigot-de-souza/,
Brasil,Amapá,Ferreira Gomes,Ferreira Gomes Energia S.A,Alupar,Brasil,Araguari,0.85565556,-51.19683333,Operacional,252,2014,Privado,https://ferreiragomesenergia.com.br/usina/,
Brasil,Amazonas,Balbina,Centrais Elétricas do Norte Do Brasil S.A. - Eletronorte,Eletrobras Amazonas GT,Brasil,Uatumã,-1.91590047,-59.47337201,Operacional,249,1989,Estatal,https://www.eletrobrasamazonasgt.com/utes/uhe-balbina/,
Brasil,Tocantins,São Salvador,Tractebel Energia S.A.,Engie ,França,Tocantins,-12.80843539,-48.23817967,Operacional,243,2009,Privado,https://www.engie.com.br/usinas/usina-hidreletrica-sao-salvador/,
Brasil,Minas Gerais,Amador Aguiar I (Antiga Capim Branco I),"Aliança Geração de Energia S.A., L.D.O.S.P.E. Geração de Energia e Participações Ltda.","Consórcio Capim Branco Energia (CCBE): Aliança Geração de Energia S.A (87,3684%), Votorantim Metais Zinco S. A (12,6316%)",Brasil,Araguari,-18.78913732,-48.14859863,Operacional,240,2006,Misto,https://rennosonic.com/uhe-amador-aguiar-i-antiga-uhe-capim-branco-i/,
Brasil,Piauí,Boa Esperança (Antiga Castelo Branco),Companhia Hidro Elétrica do São Francisco,Eletrobras Chesf,Brasil,Parnaíba,-6.75349577,-43.56267317,Operacional,237,1970,Estatal,https://www.chesf.gov.br/sistemachesf/pages/sistemageracao/boaesperanca.aspx,
Brasil,Rio Grande do Sul,Passo Fundo,Engie Brasil Energia S.A.,Engie ,França,Passo Fundo,-27.55318839,-52.74140696,Operacional,226,1973,Privado,https://www.engie.com.br/usinas/usina-hidreletrica-passo-fundo/,
Brasil,Amapá,Cachoeira Caldeirão,Empresa de Energia Cachoeira Caldeirão S.A.,"CTG Brasil (50%), EDP (50%)",China / Portugal,Araguari,0.85277778,-51.29666667,Operacional,219,2016,Privado,https://brasil.edp.com/en/what-we-do/generation/hpp-cachoeira-caldeirao,
Brasil,Rondônia,Samuel,Centrais Elétricas do Norte do Brasil S.A.,Eletrobras Eletronorte,Brasil,Jamari,-8.75098097,-63.45423064,Operacional,216,1989,Estatal,https://www.sondotecnica.com.br/case/usina-hidreletrica-de-samuel/,
Brasil,Rio de Janeiro,Funil,Furnas Centrais Elétricas S.A.,Eletrobras Furnas,Brasil,Paraíba do Sul,-22.52881287,-44.56793131,Operacional,216,1970,Estatal,https://www.furnas.com.br/funil/?culture=pt,
Brasil,Goiás,Serra do Facão,Serra do Facão Energia S.A.,"Eletrobras Furnas (49,47%), Alcoa Alumínio S.A (34,97%), DME Energética (5,47%), Camargo Corrêa Energia S.A (10,09%)",Brasil,São Marcos,-18.04597521,-47.67489042,Operacional,212,2010,Misto,https://www.furnas.com.br/serradofacao/?culture=pt,
Brasil,Minas Gerais,Amador Aguiar II (Antiga Capim Branco II),"Aliança Geração de Energia S.A., L.D.O.S.P.E. Geração de Energia e Participações Ltda.","Consórcio Capim Branco Energia (CCBE): Aliança Geração de Energia S.A (87,3684%), Votorantim Metais Zinco S. A (12,6316%)",Brasil,Araguari,-18.65915555,-48.43677000,Operacional,210,2007,Misto,https://www.ccbe.com.br/uhe-amador-aguiar-ii/,
Brasil,Mato Grosso,Manso,"Furnas Centrais Elétricas S/A., Produtores Energétios de Manso S.A.","Eletrobras Furnas (70%), consórcio PROMAN: Odebrecht, Servix e Pesa (30%)",Brasil,Manso,-14.87117506,-55.78527654,Operacional,210,2000,Misto,https://www.furnas.com.br/subsecao/124,
Brasil,Minas Gerais,Igarapava,"Aliança Geração de Energia S.A., Anglogold Ashanti Brasil Mineração Ltda, Companhia Siderúrgica Nacional, L.D.R.S.P.E. Geração de Energia e Participações Ltda.","Aliança Geração de Energia S.A (52,6450%), L.D.R.S.P.E. Geração de Energia e Participações LTDA (23,9346%), Companhia Siderúrgica Nacional (17,9204%), AngloGold Ashanti Córrego Sitio Mineração S.A. (5,5000%)",Brasil,Grande,-19.98907385,-47.75599320,Operacional,210,1998,Misto,https://uhe-igarapava.com.br/,
Brasil,Espírito Santo,Mascarenhas,Energest S.A.,EDP,Portugal,Doce,-19.50048333,-40.91846389,Operacional,198,1973,Privado,https://brasil.edp.com/en/what-we-do/generation/uhe-mascarenhas,
Brasil,Santa Catarina,Garibaldi,Rio Canoas Energia S.A.,CTG Brasil,China,Canoas,-27.62472222,-50.98388889,Operacional,191,2013,Privado,https://www.ctgbr.com.br/portfolio-item/energia-hidreletrica/,
Brasil,Santa Catarina,Salto Pilão,"CBA - Companhia Brasileira de Alumínio, Companhia Geração de Energia Pilão, DME Energética S.A.","Companhia Brasileira de Alumínio (CBA) - Grupo Votorantim (60%), DME Energética (20%), Companhia Geração de Energia Pilão (CGEP) (20%)",Brasil,Itajaí-Açu,-27.13589075,-49.51826390,Operacional,191,2009,Misto,https://usinasaltopilao.com.br/a-usina,
Brasil,Minas Gerais,Ilha dos Pombos,Light Energia S.A.,Light,Brasil,Paraíba do Sul,-21.84333300,-42.57944400,Operacional,187,1924,Misto,https://www.sbbengenharia.com.br/index.php/regiao-sudeste/81:uhe-ilha-dos-pombos,
Brasil,Bahia,Paulo Afonso I,Companhia Hidro Elétrica do São Francisco,Eletrobras Chesf,Brasil,San Francisco,-9.39810378,-38.20287244,Operacional,180,1954,Estatal,https://www.chesf.gov.br/SistemaChesf/Pages/SistemaGeracao/PauloAfonsoI.aspx,
Brasil,Minas Gerais,Engenheiro José Mendes Júnior (Funil),Aliança Geração de Energia S.A.,"Vale (55%), Cemig (45%)",Brasil,Grande,-21.14294206,-45.03614405,Operacional,180,2002,Misto,https://aliancaenergia.com.br/br/parque-gerador/,
Brasil,"Rio Grande do Sul
",Leonel de Moura Brizola (Jacuí),Companhia Estadual de Geração e Transmissão de Energia Elétrica (CEEE GT),CEEE GT,Brasil,Jacuí,-29.07277778,-53.20805556,Operacional,180,1962,Estatal,https://www.ceee.com.br/a-ceee/usinas-e-pchs,
Brasil,Mato Grosso,Ponte de Pedra,Tractebel Energia S/A,Engie,França,Correntes,-17.60779146,-54.82731282,Operacional,176,2005,Privado,https://www.engie.com.br/usinas/usina-hidreletrica-ponte-de-pedra/,
Brasil,Bahia,Pedra do Cavalo,Votorantim Cimentos N/NE S/A,Votorantim ,Brasil,Paraguaçu,-12.58353873,-38.99802340,Operacional,160,2004,Privado,https://www.votorantimcimentos.com.br/noticia/assumimos-a-operacao-da-usina-hidreletrica-de-pedra-do-cavalo/,
Brasil,Rio Grande do Sul,Passo Real,Companhia Estadual de Geração de Energia Elétrica,CEEE GT,Brasil,Jacuí,-29.01700012,-53.19004308,Operacional,158,1973,Estatal,https://www.ceee.com.br/a-ceee/usinas-e-pchs,
Brasil,Mato Grosso,Itiquira (Casas de Forças I e II),Itiquira Energética S.A.,Itisa Holding LLC,Estados Unidos,Itiquira,-17.09064722,-54.83073611,Operacional,157,2002,Privado,https://www.quebecengenharia.com.br/en/project/uhe-itiquira/,
Brasil,São Paulo,Bariri (Álvaro de Souza Lima),AES Tietê Energia S.A.,AES ,Estados Unidos,Tietê,-22.15333300,-48.75250000,Operacional,143,1969,Privado,http://www.geografia.seed.pr.gov.br/modules/galeria/detalhe.php?foto=1414&evento=3,
Brasil,São Paulo,Barra Bonita,AES Brasil Operações S.A.,AES ,Estados Unidos,Tietê,-22.51944400,-48.53444400,Operacional,140,1963,Privado,https://www.aesbrasil.com.br/pt-br/aes-tiete-realiza-teste-de-abertura-de-comporta-na-uhe-barra-bonita-0,
Brasil,Minas Gerais,Baguari,"Baguari Energia S.A., Baguari I Geração de Energia Elétrica S.A.","Neoenergia (51%), Baguarienergia: Cemig Geração e Transmissão e Eletrobras Furnas (49%)",Espanha,Doce,-19.02156872,-42.12489562,Operacional,140,2009,Misto,https://www.neoenergia.com/pt-br/sobre-nos/linhas-de-negocios/renovaveis/renovaveis-hidrica/Paginas/baguari.aspx,
Brasil,Minas Gerais,Guilman Amorim,"Samarco Mineração S.A., Arcelormittal Brasil S.A.","ArcelorMittal Brasil S.A. (51%), Samarco Mineração S.A. (49%)",Luxemburgo,Piracicaba,-19.70833333,-42.96000000,Operacional,140,1997,Privado,http://www.uhe-guilmanamorim.com.br/DadosUsina,
Brasil,Minas Gerais,Risoleta Neves (Antiga Candonga),"Aliança Geração de Energia S.A., Vale S.A.","Vale (77,5%), Cemig (22,5%)",Brasil,Doce,-20.20742219,-42.85499938,Operacional,140,2004,Misto,https://canalenergia.com.br/noticias/53158746/consorcio-tera-seis-meses-para-retomar-operacao-da-uhe-risoleta-neves,
Brasil,Rio de Janeiro,Fontes Nova,Light Energia S.A.,Light,Brasil,Ribeirão das Lajes,-22.69138900,-43.86444400,Operacional,131,1940,Misto,http://www.light.com.br/grupo-light/Empresas-do-Grupo/light-energia.aspx,
Brasil,São Paulo,Ibitinga,AES Tietê Energia S.A.,AES ,Estados Unidos,Tietê,-21.75916700,-48.99055600,Operacional,131,1969,Privado,https://dadosenergeticos.energia.sp.gov.br//portalcev2/intranet/eletricidade/geracao/DetalhesUsinas.asp?concessionaria=3&usina=7&mes=6&ano=2017&nome=AES%20TIET%C3%8A%20S/A&nome2=IBITINGA&reduzido=AES,
Brasil,Rio Grande do Sul,Monte Claro,Companhia Energética Rio das Antas (Ceran),"CPFL (65%), CEEE GT (30%), Statkraft Energias Renováveis S.A. (5%)",China,Antas,-29.03083717,-51.52125794,Operacional,130,2004,Misto,https://www.grupocpfl.com.br/unidades-de-negocios/cpfl-geracao,http://www.ceran.com.br/session/viewPage/sectionId/1/language/pt_BR/
Brasil,Rio Grande do Sul,Castro Alves,Companhia Energética Rio das Antas (Ceran),"CPFL (65%), CEEE GT (30%), Statkraft Energias Renováveis S.A. (5%)",China,Rio das Antas,-29.00529866,-51.38441770,Operacional,130,2008,Misto,http://www.ceran.com.br/session/viewPage/pageId/59/language/pt_BR/,http://www.ceran.com.br/session/viewPage/sectionId/1/language/pt_BR/
Brasil,Goiás,Corumbá IV,Corumbá Concessões S/A,"CEB – Participações S. A., Serveng Energias Renováveis S. A., Cézar Rubens Fiqueiredo, CAESB – Companhia de Saneamento do Distrito Federal, CEB – Companhia Energética de Brasília, TERRACAP",Brasil,Corumbá,-16.32273448,-48.18748167,Operacional,129,2006,Misto,https://www.corumbaconcessoes.com.br/index.php/uhe-corumba-iv/visao-geral/,
Brasil,Rio Grande do Sul,Dona Francisca,"Companhia Estadual de Energia Elétrica, Companhia Estadual de Geração e Transmissão de Energia Elétrica, Campanhia Dona Francisca Energética S.A.","Gerdau S.A. (51.82%), Copel (23.03%), Celesc (23.03%), Statkraft (2.12%)",Brasil,Jacuí,-29.44908830,-53.28500397,Operacional,125,2001,Misto,https://www.statkraft.com.br/onde-operamos/brasil/central-hidreletrica-dona-francisca/,
